Name;Latitude;Longitude
Aach (Hegau), Aach Rathaus;47.8429803510335;8.85189101311186
Aach (Hegau), Aachquelle;47.8462179169524;8.85831396739421
Aach (Hegau), Autohaus Gohm;47.8388381424663;8.86000280012859
Aach-Linz, Bodenseestrasse;47.9074584334273;9.20241363702409
Aach-Linz, Löwen;47.9113844179779;9.1997905563941
Aach-Linz, Schule;47.9065371086326;9.20798319178641
Aadorf;47.4881149705558;8.90330159682918
Aadorf, Bahnhof;47.4884124146001;8.90273565820011
Aadorf, Matthofstrasse;47.4851404374679;8.90461313714418
Aadorf, Morgental;47.4939360693028;8.89614202401375
Aadorf, Zentrum;47.4910832652388;8.8994118916484
Aalen;48.8410156251947;10.0962732774588
Aarau;47.3913624954782;8.05127649918173
Aarau Rohr, Gemeindehaus;47.4033842042348;8.08491840657669
Aarau Rohr, Quellhölzli;47.4003562325414;8.07507287106137
Aarau Rohr, Rigistrasse;47.4020465675163;8.08058852690663
Aarau Rohr, Salamatt;47.3985199079086;8.07213538008189
Aarau Rohr, Unterdorf;47.4044421292217;8.08791877962607
Aarau Torfeld;47.3935639441972;8.06264018752743
Aarau, Aarenau;47.4015601457432;8.04912952565239
Aarau, Aarepark;47.3963369089406;8.0413231658323
Aarau, Achenbergstrasse;47.3992739032506;8.04607525368596
Aarau, Allmendweg;47.3919584768613;8.03766702262543
Aarau, Alte Badanstalt;47.3954065225628;8.03126203464877
Aarau, Bahnhof;47.3918611742387;8.05100700459646
Aarau, Bavaria;47.3903043078445;8.06312527778092
Aarau, Berufsschule;47.3970301273265;8.05504044022272
Aarau, Binzenhof;47.383145779521;8.05068361109413
Aarau, Binzenhofstrasse;47.379356292453;8.04673102384346
Aarau, Buchenhof;47.3875431894949;8.05070157739982
Aarau, Dammweg;47.3859132103277;8.03375935113896
Aarau, Delfterstrasse;47.3987631333914;8.06228086141373
Aarau, Dossenstrasse;47.3828355749249;8.04621898413144
Aarau, Dufourstrasse;47.3850617086306;8.05250719112115
Aarau, Friedhof;47.3886379233268;8.04679390591335
Aarau, Gais;47.3916361612358;8.05781623445103
Aarau, General Guisanstrasse;47.378401274411;8.0554177326421
Aarau, Hans Hässigstrasse;47.3804998581775;8.04985716103263
Aarau, Heinerich-Wirri-Strasse;47.3834559822916;8.05389957981173
Aarau, Herzogplatz;47.3873668135842;8.05558841254611
Aarau, Hirslanden Klinik;47.3913260066031;8.04187113815569
Aarau, Holzmarkt;47.3921226746296;8.04552728136257
Aarau, Ifang;47.387579680989;8.038718051508
Aarau, Käfergrund;47.3793988724724;8.05225566284156
Aarau, Kantonsspital;47.3873911413311;8.06072677597199
Aarau, Kasinopark;47.3921470001814;8.04686577113609
Aarau, Keba/Brügglifeld;47.3815217469876;8.05736707680891
Aarau, Kettenbrücke;47.394324091594;8.04250894200751
Aarau, Kunsthaus;47.3907908335331;8.04623695043712
Aarau, Neue Kantonsschule;47.3855057076603;8.04334437522185
Aarau, Neumattstrasse;47.3997238630719;8.06538903229722
Aarau, Obere Vorstadt;47.3893251612816;8.04766527173907
Aarau, Pestalozzistrasse;47.3869228302307;8.04230232949213
Aarau, Rathaus;47.3940261151211;8.04302098171953
Aarau, Roggenhausen;47.3856942540622;8.03679565679971
Aarau, Schanz;47.3889906660512;8.04220351481086
Aarau, Sonnmattweg;47.3976868521216;8.04313776270648
Aarau, Tannerstrasse;47.384301427635;8.04485354489939
Aarau, Tellizentrum;47.3977719825142;8.05906489269614
Aarau, Wallerplatz;47.3821360872747;8.04423370735326
Aarau, Wasserfluhweg;47.3788757441355;8.04880613215006
Aarau, Wöschnauring;47.3852076813269;8.0310374558277
Aarberg;47.0445389843016;7.27868942212004
Aarberg, Aarezelg;47.049876566329;7.27197900694673
Aarberg, Bernfeld;47.0437248336763;7.28472610083016
Aarberg, Bielstr/Friedhof;47.044385949418;7.26998474701571
Aarberg, Bifang;47.0510762245516;7.28333371213958
Aarberg, Murtenstrasse;47.0430698312971;7.27276952439686
Aarberg, Nidaustrasse;47.0468711815994;7.27126933787218
Aarberg, Post/Bahnhof;47.0444900131866;7.27803365196254
Aarberg, Scheueracker;47.0455061546106;7.26649030055999
Aarberg, Schwimmbad;47.0407803205474;7.27499734630179
Aarberg, Spital;47.0473241424777;7.27971350154407
Aarburg, Alter Friedhof;47.3262078929724;7.90059309340255
Aarburg, Höhe;47.3291609713229;7.90433008498501
Aarburg, Kloosmatte;47.3368199390603;7.90786046405209
Aarburg, Längacker;47.3330940935006;7.90622553023476
Aarburg, Stadtgarten;47.3200150255833;7.89941630038019
Aarburg, Städtli;47.3217627421205;7.89898510904375
Aarburg-Oftringen;47.3202707925903;7.90821979016579
Aarburg-Oftringen, Bahnhof;47.3201489989318;7.90781554828788
Aareschlucht Ost (Bahn);46.7119988439719;8.21789601810342
Aareschlucht West;46.7212495326712;8.19857325633932
Aareschlucht, Ost;46.7120850760887;8.21637786527304
Aarwangen;47.2408749236807;7.76961872495969
Aarwangen Schloss;47.2451805165884;7.76361797886094
Aarwangen Vorstadt;47.2374899697048;7.77130755769407
Aathal;47.3359615567718;8.76562579636586
Abetsweiler;47.8700503092814;9.76125557535264
Ablach, Bosch;48.0139684434865;9.23000988255609
Ablach, Rathaus;48.0210168410411;9.22651543610037
Ablach, Riedäcker;48.0184151150954;9.22602136269404
Aboncourt;49.2619542370478;6.34858275996605
Abrest Mairie;46.0721633640231;3.46994939791002
Abtwil AG, Auwerstrasse;47.1749239616002;8.35463757067112
Abtwil AG, Hofmatt;47.176761958961;8.3557963973878
Abtwil AG, Langegg;47.1831608687005;8.35827574757231
Abtwil AG, Post;47.1745209370634;8.35530232398147
Abtwil SG, Ausserdorf;47.4203935484095;9.31471203070751
Abtwil SG, Dorf;47.421524067763;9.31641882974757
Abtwil SG, Dufourpark;47.4254016862609;9.32311127861519
Abtwil SG, Farnen;47.4238701218596;9.32691115226755
Abtwil SG, Friedhof;47.422034616933;9.32300348078108
Abtwil SG, Gemeindehaus;47.4220406948695;9.31933835442137
Abtwil SG, Grund;47.4230739338734;9.32767472025916
Abtwil SG, Hüslenweg;47.42379718911;9.32157515947913
Abtwil SG, Säntispark;47.4174881238748;9.31501745790415
Abtwil SG, Sonnenberg;47.4258088804086;9.31908682614178
Abtwil SG, St. Josefen;47.4232015678724;9.33139374553593
Abtwil SG, Wiesenbach/Cinedome;47.4162177100509;9.31234946150994
Abtwil SG, Zentrumpark;47.422830820638;9.31777528582678
Abzw.;47.3081996762787;8.35774574155461
Abzweigung;46.9593531931194;10.3974514428075
Accolay Le Pont;47.6687530199449;3.70881143199065
Achern;48.6339911003154;8.06532615022732
Achseten, Bettbach;46.5310276587003;7.59235416991971
Achseten, Bönigen;46.5356316117794;7.59654031914429
Achseten, Elsigbach/Luftseilb.;46.5291983287325;7.60639483781245
Achseten, Höchst/Skilift;46.5171392779703;7.60333158269318
Achseten, Hoher Steg;46.5280055229686;7.59214755740434
Achseten, Kirche;46.5259474079136;7.59242603514245
Achseten, Marchbach;46.5159647527524;7.5879703913326
Achseten, Schmitten;46.5396914183478;7.59874119159069
Achseten, Tregel;46.5205328950255;7.5892190495777
Acla (Medel);46.6355430464075;8.8473904535378
Acla (Safien);46.7564332294439;9.35474994292629
Acla da Fans;46.9547607611325;10.4358993369732
Acla da Fontauna;46.6971710311173;8.84579145233184
Acla da Fontauna, center sport;46.6997340019827;8.8445966930038
Aclens, collège;46.5672307643645;6.51028849428292
Acquacalda;46.5376337461041;8.83447267975036
Acquarossa, Casa Anziani;46.4508749607652;8.93864132011136
Acquarossa, Ospedale;46.4511349056627;8.9403211696929
Acquarossa, Scuole;46.4588398516622;8.93565891336767
Acquarossa-Comprovasco;46.4551577042346;8.93848860651304
Adamswiller Lotis. la Forêt;48.9056363648323;7.20823455437673
Adamswiller Mairie;48.9038354182932;7.20118277939541
Adelboden (Tschentenbahn);46.4930007773132;7.55754445265523
Adelboden Dorf (Silleren);46.4903661632218;7.55663715421815
Adelboden Geils (Hahnenmoos);46.456958583917;7.51272750312427
Adelboden Oey (Sillerenbahn);46.4878860460231;7.56042804471766
Adelboden, Altersheim;46.49761413681;7.56641082451073
Adelboden, Ausserschwand;46.50508373346;7.57398362235691
Adelboden, Bergläger;46.4687773124626;7.53320010845221
Adelboden, Boden Wendeplatz;46.4819790771371;7.55858649838496
Adelboden, Bollersgraben;46.4778592825651;7.55966447672605
Adelboden, Brügge;46.4763003600291;7.56228755735605
Adelboden, Chäli;46.4608695676495;7.56245823726005
Adelboden, Dorf Sillerenbahn;46.4902486539864;7.55569392316969
Adelboden, Dürrenegge;46.4877252365153;7.56398537324327
Adelboden, Falkiport;46.4844223514735;7.5618114502554
Adelboden, Geils;46.4570575996293;7.51341920589314
Adelboden, Gilbach, des Alpes;46.4794552760357;7.53901220834127
Adelboden, Gulli;46.4888075990331;7.53080160664327
Adelboden, Heinrichseggen;46.4874407262217;7.5524779544521
Adelboden, Hirschen;46.5049167917669;7.58234693765323
Adelboden, Hirzboden;46.5114704139587;7.58470052369795
Adelboden, Hotel Alpina;46.4842677171099;7.56643777396926
Adelboden, Janz Team;46.499673325096;7.56874644424976
Adelboden, Jugendh. Heilsarmee;46.4856037435045;7.54017103505794
Adelboden, Kreuzgasse;46.4813666949797;7.56139822522464
Adelboden, Margeli;46.4966370772517;7.57156715424229
Adelboden, Mineralquelle;46.4887457503266;7.56002380283975
Adelboden, Mudi;46.4823007296506;7.5643087667456
Adelboden, Mühleport;46.4911145055533;7.56194619754803
Adelboden, Neuweg;46.5011450094792;7.57622042741468
Adelboden, Oey;46.4903537938405;7.56588980164587
Adelboden, Post;46.4936934246189;7.56029329742502
Adelboden, Rainweg;46.5033833774205;7.57230377277537
Adelboden, Raufmatte;46.4703921331827;7.56208992799351
Adelboden, Schermtanne;46.4893518646182;7.52640884490332
Adelboden, Schlegeli Crystal;46.4950354036699;7.56363503028241
Adelboden, Schlegeli Hari;46.4960495962812;7.56540471139237
Adelboden, Schönbühl;46.5015964004878;7.57083951886205
Adelboden, Schreiner Bärtschi;46.487372690931;7.53426012048762
Adelboden, Unter dem Birg;46.4592730291079;7.56665336963747
Adelboden, Unter der Fluh;46.4845089465252;7.5463424610607
Adelboden, Wegscheide;46.4863150404685;7.55010640210169
Adelboden, Zürcherhaus;46.4868964415135;7.53753897127511
Adelhausen (Bd), Adler;47.6108705746131;7.7612823591219
Adelhausen (Bd), Dinkelb. Hof;47.6129356648654;7.76074336995136
Adelhausen (Bd), Hüsingerstr.;47.61575156561;7.76177643252824
Adelsberg;47.7174642100783;7.83629168535632
Adetswil, Frowiesstrasse;47.3385001363415;8.8441116027503
Adetswil, Sunneberg;47.3386766757054;8.84185683138685
Adligenswil, Blatte;47.0703649812206;8.3676900917512
Adligenswil, Chliäbnet;47.0734302227132;8.38107498948644
Adligenswil, Dorf;47.0704751127107;8.36385428548748
Adligenswil, Luegisland;47.063823986309;8.35629945394698
Adligenswil, Rigiblick;47.0657392531407;8.36251579571395
Adligenswil, Sagi;47.0711787251925;8.37828122895244
Adligenswil, Stuben;47.0726471039293;8.35023582577833
Adligenswil, Widspüel;47.0735464659269;8.35995559715385
Adlikon b. Andelfingen;47.5826354618758;8.6925568311454
Adlikon b. R., Dorf;47.4481632583;8.46646884040673
Adlikon b. R., Leematten;47.4525856138756;8.46706172849433
Adlikon b. R., Pächterried;47.445897264461;8.47004413523802
Adlikon b. R., Sonnhalde;47.4520024673923;8.46220184280657
Adlikon b. R., Sonnhalde West;47.4533023892358;8.45891400886623
Adlikon b. R., Ziegelhütte;47.452634209124;8.46607358168166
Adliswil;47.3122744430936;8.52425746264218
Adliswil (Luftseilbahnstation);47.3131697533444;8.52005334711192
Adliswil, Ahornweg;47.3187909806225;8.53439045904846
Adliswil, Badstrasse;47.3135960862281;8.5338065541137
Adliswil, Bahnhof;47.3117811023922;8.52431136155924
Adliswil, Baldernstrasse;47.3207884125064;8.51558872014922
Adliswil, Baumgartenweg;47.3096006031465;8.52561391872139
Adliswil, Bodenacker;47.3164037068786;8.51773569367857
Adliswil, Büchel;47.301103106761;8.52210150596
Adliswil, Dietlimoos;47.3224752092768;8.53225246867196
Adliswil, Feldblumenstrasse;47.3146253614429;8.51908316660494
Adliswil, Friedhof;47.3068839894096;8.52963837119481
Adliswil, Grundstrasse;47.3129504950936;8.53005159622556
Adliswil, Grüt;47.3224386727333;8.52898260103731
Adliswil, Hofackerstrasse;47.3151369463988;8.53576488143336
Adliswil, Krone;47.3130783958505;8.52764411126379
Adliswil, Landolt-Junker-Str.;47.3033448728597;8.52226320271116
Adliswil, Moos;47.3251362195887;8.53114754087234
Adliswil, Poststrasse;47.3132002058073;8.52520069369064
Adliswil, Rifertstrasse;47.3099477836289;8.53183026048837
Adliswil, Rütistrasse/Wacht;47.3070179960516;8.53219856975491
Adliswil, Schulhaus Kopfholz;47.3087965974842;8.53444435796552
Adliswil, Sunnau;47.3260617569731;8.52954853966638
Adliswil, Tiefacker;47.3165681399064;8.53001566361419
Adliswil, Tobelhof;47.3091986018442;8.52847954447813
Adliswil, Wanneten-/Haldenstr.;47.3059154767601;8.52246981522654
Adliswil, Zopf;47.319162459951;8.51635228814083
Adrazhofen, Milchwerk;47.8213130020579;10.0517797214302
Adrazhofen, Rathaus;47.8185443812157;10.0577086023062
Aedermannsdorf, Dorfplatz;47.3045631841301;7.61039234082734
Aedermannsdorf, Güggel;47.3236809010372;7.58497001828322
Aedermannsdorf, Staatsstrasse;47.2988246927305;7.61460543951045
Aefligen;47.0955913826899;7.5592512516953
Aefligen, Bahnhof;47.095505765258;7.55905362233277
Aefligen, Gemeindehaus;47.0938728921751;7.55690664880342
Aegerten, Jurastrasse;47.1229757786075;7.29184974103422
Aegerten, Salismatte;47.1219794512893;7.28709765318056
Aegerten, Stockfeld;47.1196505398093;7.29061006594196
Aemsigen;46.970522990951;8.27122899652902
Aéroport Charles-de-Gaulle TGV;49.0040463384523;2.57113105710628
Aesch (Neftenbach);47.5423433244672;8.68091466506159
Aesch bei Maur, Im Brünneli;47.3302751827274;8.65471080822018
Aesch bei Maur, Zollingerheim;47.3266828321782;8.65634574203751
Aesch BL;47.4677451528131;7.60307107126075
Aesch BL, Alterszentrum;47.4653889088478;7.59657625175566
Aesch BL, Arlesheimerstrasse;47.4789176551617;7.59495928424402
Aesch BL, Bahnhof;47.4676662082048;7.60280157667548
Aesch BL, Dorf;47.4695729909719;7.59689964525799
Aesch BL, Gewerbestrasse;47.48171040961;7.60440057788143
Aesch BL, Herrenweg;47.4737506680688;7.59691761156367
Aesch BL, Höhenweg;47.4627349715161;7.59489640217412
Aesch BL, Neumatt;47.4711214420013;7.59380944068019
Aesch BL, Schürhof;47.4761429673241;7.56231450681457
Aesch BL, Schützenmattschule;47.4732284765931;7.60106782817688
Aesch BL, Schwimmbad;47.4789540833492;7.6031249701778
Aesch BL, Sonnenweg;47.4858082044564;7.60618822529708
Aesch BL, Sportanl Löhrenacker;47.4727548565813;7.58531137809123
Aesch LU (See);47.2584183272265;8.22991547660661
Aesch LU, Berg;47.2609301498905;8.24433343691874
Aesch LU, Kreuz;47.2573208915713;8.24088390622724
Aesch LU, Vorderdorf;47.2543881880237;8.24159357530179
Aesch ZH, Gemeindehaus;47.3382079319594;8.43870191497073
Aesch ZH, Heligenmattstrasse;47.3345248005831;8.43633036262033
Aeschach, Friedhof;47.5630176015287;9.69827469077425
Aeschach, Friedrichshaf. Str.;47.5568464865951;9.68933645369602
Aeschau, Dorf;46.9088024886539;7.76199202819646
Aeschau, Gärtnerei;46.9052797664872;7.76258491628406
Aeschau, Horben Schmiede;46.9025608522448;7.76423781640707
Aeschau, Horben Schulhaus;46.8993875883387;7.77319401979099
Aeschau, Säge;46.9116069991315;7.75885690785444
Aeschenplatz;47.5512991372625;7.59485148640991
Aeschi b. Spiez, Adelmatt;46.654660970416;7.69446566827979
Aeschi b. Spiez, Alleestrasse;46.6594517266232;7.70119404975878
Aeschi b. Spiez, Friedegg;46.6514915625228;7.70276610150621
Aeschi b. Spiez, Hasleren;46.6648277197683;7.68506929040659
Aeschi b. Spiez, Hundbüel;46.6505049385001;7.69193241917822
Aeschi b. Spiez, Längenboden;46.6583357711414;7.71308774412218
Aeschi b. Spiez, Lengmattli;46.663033726441;7.69031545166658
Aeschi b. Spiez, Mustermattli;46.6542910101984;7.70043048176718
Aeschi b. Spiez, Niederdorf;46.6607464527391;7.69367515082966
Aeschi b. Spiez, Post;46.6587858554054;7.69621738308407
Aeschi b. Spiez, Wachthubel;46.6505727694778;7.71107551788547
Aeschi SO, Bolkenstrasse;47.1813291985134;7.66099444078884
Aeschi SO, Dorf;47.1805232436107;7.66438108941044
Aeschi SO, Kirche;47.1812742474314;7.66029375486713
Aeschi SO, Ost;47.1814574174835;7.67318457919604
Aeschiried, Chemihütte;46.6482973020614;7.72018443486771
Aeschiried, Ebenen;46.6498451236422;7.71538743124985
Aeschiried, Fuchsgraben;46.629935896682;7.74673863466998
Aeschiried, Kapelle;46.6469406092707;7.72123546375028
Aeschiried, Schulhaus;46.6450041797089;7.72409210635418
Aeschiried, Staldeweid;46.6342353802639;7.73860888134757
Aeschiried, Suld Pochtenfall;46.6221503098262;7.76445341207529
Aeschiried, untere Allmi;46.6370295530323;7.73502460336343
Aeschlen b. O., Abzw. Bleiken;46.8341007038478;7.63079308093254
Aeschlen b. O., Bareichte;46.8378063082162;7.66685145644211
Aeschlen b. O., Dorf;46.8369459916702;7.64190524099864
Aeschlen b. O., Langenegg;46.8380459653724;7.65737423019333
Aeschlen ob Gunten, Dorf;46.7198146096521;7.69827452508499
Aeschlen ob Gunten, Erliboden;46.7207014335332;7.70533528321915
Aeschlen ob Gunten, Mattikehr;46.7177206620944;7.6971965467439
Aetigkofen, Dorf;47.1256896062381;7.46629358608167
Aetingen, Fröscheren;47.1234403174821;7.49593799046174
Aetingen, Post;47.1318991053583;7.50491216015134
Aetingen, Schulhaus;47.1295095118796;7.50214534907587
Aettenschwil, Oberdorf;47.1829777045256;8.37127436973533
Aettenschwil, Post;47.1843208937996;8.37182234205872
Aeugst am Albis, Dorf;47.2678309520619;8.48534244452871
Aeugst am Albis, Grossacher;47.2661058358545;8.49120844333483
Aeugst am Albis, Höchweg;47.2708665324026;8.48064425559211
Aeugst am Albis, Müliberg;47.2812337378832;8.47853321467414
Aeugstertal, Kloster;47.2843051124036;8.48686059735908
Aeugstertal, Landhus;47.2799051912787;8.50064973697224
Aeusseres Emdthal;46.6596675164622;7.67932905574027
Affeltrangen, Dorf;47.5270476004718;9.03167983410057
Affoltern a.A., Bahnhof;47.2758157398324;8.44660708947208
Affoltern a.A., Bezirksspital;47.2811971728268;8.45738687288302
Affoltern a.A., Blitzgbach;47.2855238623972;8.45310190897717
Affoltern a.A., Friedhof;47.2826658493811;8.44649929163797
Affoltern a.A., Kronenplatz;47.2812215495339;8.45441344929217
Affoltern a.A., Lilienberg;47.2785766113129;8.46595680069471
Affoltern a.A., Lindenmoos;47.270805578687;8.44411875613473
Affoltern a.A., Moosbach;47.2727438724658;8.43986074168741
Affoltern a.A., Stigeli;47.2784669105587;8.45910265507593
Affoltern a.A., Weinberg;47.2797589272286;8.46131251067517
Affoltern am Albis;47.2760717207306;8.44659810631924
Affoltern i.E., Bannholz;47.0659472971515;7.72481075858157
Affoltern i.E., Dorf;47.0647357353314;7.73142235907361
Affoltern-Weier;47.0619147700578;7.74985578870631
Affoltern-Weier, Bahnhof;47.0623553644921;7.74969409195515
Aftersteg;47.842624628491;7.92925833412279
Agarn, Dorf;46.2974649373729;7.66352768989041
Agarone, Bivio per Cugnasco;46.1790457674158;8.91003896146101
Agarone, Chiossette;46.1784921847432;8.90257396144894
Agarone, Colletto;46.1807189216139;8.91181762572382
Agarone, i Lög;46.1798668011167;8.91339866062409
Agarone, Paese;46.1784237640259;8.90608637421034
Agarone, Piandesso;46.1785357251553;8.89931307696713
Agarone, Roccolo;46.1804825683469;8.91029947289345
Agarone, Ronco Morasci;46.179431405984;8.91256322740974
Agasul;47.4251768165009;8.74430877467073
Agde;43.317492630111;3.46579918129681
Agiez, L'Epine;46.7158729938252;6.50779117779272
Agiez, Vers-le-Pont;46.7192172270158;6.51135748947117
Agno;45.995929855931;8.90092106132593
Agno, Chiesa;45.9981951768883;8.89744458117591
Agno, Posta/FLP;45.9963479800011;8.90123547167542
Agra, Bivio;45.9697627358996;8.91494376291299
Agra, Paese;45.9674088367445;8.91244644642279
Agra, Roncone;45.9633376662996;8.91020964136502
Agra, Rondelli;45.9675524461895;8.91412629600433
Agriswil;46.9531787640548;7.19375371199471
Aguilcourt - Variscourt;49.408010766035;3.97310477176825
Aha;47.8332242286765;8.13435269666867
Aha, Gasthaus Auerhahn;47.8334835313069;8.1327087796985
Aichen, Abzw. Berghaus;47.6768222915156;8.28704832868456
Aichen, Aichen;47.6750561108526;8.26186855126719
Aigle;46.3168570950126;6.96368618454684
Aigle, Artisans;46.3147537659535;6.93936878980234
Aigle, av. Margencel;46.3181600016658;6.96495280909762
Aigle, Biole;46.3099139407613;6.9452437717613
Aigle, ch. des Lieugex;46.3203810757706;6.96032648538376
Aigle, Champex;46.3117754626393;6.94348307380418
Aigle, Charmettes;46.3101249164219;6.96388381390937
Aigle, Dents-du-Midi;46.3137299924708;6.95890714723465
Aigle, Essertons;46.2998606285654;6.95511625673514
Aigle, gare;46.3161559943089;6.96461144928961
Aigle, Golf;46.3153990436418;6.94908856117786
Aigle, Grand-Pré;46.316832277442;6.93759910869237
Aigle, imagerie médicale;46.3093740875739;6.9441029113503
Aigle, La Chapelle;46.3128116823864;6.9673602940594
Aigle, La Mêlée;46.3190285888663;6.937563176081
Aigle, Les Glariers;46.3206602546844;6.96771962017309
Aigle, Les Iles;46.2996185816247;6.94869330245279
Aigle, Levant;46.3166647585456;6.95967071522626
Aigle, Marais;46.3033732919225;6.94192898836243
Aigle, médiathèque;46.3199219784594;6.96381194868663
Aigle, Novassales;46.3145676267448;6.96274295349838
Aigle, Orlons;46.3106957876616;6.93803928318165
Aigle, passerelle Illarsaz;46.3127186095584;6.93510179220217
Aigle, Pautex;46.3169191388901;6.95434370559069
Aigle, piscine;46.3218514020447;6.96262617251143
Aigle, place du Marché;46.3173782613967;6.97021693666329
Aigle, Pré d'Emoz/écoles;46.3216714908248;6.95648169596719
Aigle, Pré Neyroud;46.3018031716683;6.94481258042486
Aigle, rte d'Evian;46.3184391919125;6.95959885000352
Aigle, Vergers;46.3119988410101;6.96360533617125
Aigle-Château;46.3168695037938;6.97892161176762
Aigle-Dépôt;46.3182902906249;6.97537326639486
Aigle-Hôpital;46.3104724039726;6.9660487537444
Aigle-Parc Aventure;46.3152997706466;6.98621593187569
Aigle-Place-du-Marché;46.3172417659187;6.97034270080309
Aiglon Collège;46.3020141785903;7.04670848311672
Aiguebelette-Centre;45.5375722082183;5.81464212131677
Aiguebelette-le-Lac;45.536244544233;5.81368990711547
Aiguebelle;45.5438514453303;6.30671228456741
Aigueblanche;45.4901470009628;6.51407040162959
Aigueperse;46.0147859812909;3.19827190649594
Ailleville;48.2533307500725;4.68148027231214
Aillevillers;47.9126187534198;6.33550328942745
Aime-la-Plagne;45.554206250189;6.64839548608268
Aire-la-Ville, centre;46.1897990934931;6.04375743456334
Aire-la-Ville, croisée;46.1883438792014;6.04591339124553
Aire-la-Ville, Pont-de-Peney;46.1929083966284;6.04358675465934
Aire-la-Ville, Treulaz;46.1858811210935;6.04539236838067
Airolo;46.5275234489581;8.60861825098559
Airolo (Pesciüm);46.5239942896862;8.60227614507883
Airolo, Biv. per Madrano;46.5244145868798;8.62955798026133
Airolo, Bivio per Nante;46.5245134798646;8.60503397300146
Airolo, Buco dei Cavalli;46.5285184944606;8.61305592848976
Airolo, Centro Sportivo;46.5232896665075;8.61920040503399
Airolo, Cioss di fuori;46.5238026825335;8.58925057345728
Airolo, Funivia;46.5248534231267;8.60077595855414
Airolo, Galleria Banchi;46.5362989980898;8.56849949039123
Airolo, Pian Secco Belvédère;46.5354276865486;8.57461701747693
Airolo, Stazione;46.5276779603248;8.60820502595484
Aiserey;47.1705149511357;5.15809042952094
Aispel, Aispel;47.6645001206748;8.21180544047624
Aispel, Rohrmühlenweg;47.6663695031499;8.20557113240358
Aispel, Wendeplatz;47.6641129262914;8.21365596996178
Aitern, Abzweigung;47.7983935436501;7.90542602963179
Aitern, Am Schadenrain;47.8013864976705;7.89938935092166
Aitern, Belchenbahn Talstation;47.8214698258353;7.85085337611393
Aitern, Holzinshaus;47.8091154864814;7.88146796100098
Aitern, Multen;47.8214698258353;7.85085337611393
Aitern, Obermulten;47.8230259745661;7.85449155301512
Aitern, Rössle;47.8026777592662;7.89588592131311
Aiton-Bourgneuf;45.5552315614454;6.26799489581647
Aix-en-Provence TGV;43.4551700412747;5.31722698212486
Aix-les-Bains-le-Revard;45.6881995843006;5.90898319246813
Ajain;46.1832814233881;2.01372642323252
Alabardia;46.1378913057045;8.81506906961068
Alaï;45.751870103563;4.77183282360146
Alai Arrêt TCL;45.7415204312302;4.77684542288754
Alba-la-Romaine Ruines Romaine;44.5613669291147;4.5976405068336
Albbruck;47.5922326266031;8.13177453180289
Albbruck, Abzw. Tiefenstein;47.6081755394682;8.09163780490284
Albbruck, Albtalstrasse;47.5927415180238;8.12906161964447
Albbruck, Bad;47.5959219772863;8.13902393614674
Albbruck, ehem. Papierfabrik;47.5922326266031;8.13177453180289
Albbruck, Eisenbahnstrasse;47.5936260080033;8.13387658956802
Albbruck, Haide;47.6151096746976;8.10142944150111
Albbruck, Hohenfels;47.6065099988828;8.11111328026526
Albbruck, Kies;47.587622087166;8.12156068702103
Albbruck, Kindergarten;47.5892458188712;8.12842381579266
Albbruck, Schachen;47.6033725820325;8.09835720322899
Albbruck, Schanz;47.5892761118945;8.12590853299677
Albbruck, Schule;47.5941591180304;8.13252911664166
Albens;45.7858393918495;5.94852703128058
Alberswil, Burgrain;47.1417374767124;8.00451020548396
Alberswil, Dorf;47.150278884117;8.00203085529945
Alberswil, Unterdorf;47.1557952438976;8.00104270848678
Albert (D);47.5856468829324;8.11345788315714
Albert (D), ehem. Kindergarten;47.5873130877409;8.11033174596797
Albertville;45.6736264508151;6.38361705605159
Albeuve;46.5179305227524;7.05542214137389
Albeuve, gare;46.5185177672901;7.05589824847454
Albigny - Neuville;45.8747469556578;4.83267571780334
Albigny-Neuville-Arret-TCL-Gar;45.875597538531;4.83334047111369
Albinen, Dorben;46.3509148024189;7.62620268983005
Albinen, Dorf;46.3401868352673;7.63511397744975
Albinen, Rhodania;46.337123087129;7.63620093894369
Albinen, Schreinerei;46.3423077911091;7.63304785229599
Albinen, Schwelli;46.3434984670995;7.63269750933514
Albinen, Tschäss;46.3347786456967;7.638806053268
Albinen, Tschingeren;46.3311625508734;7.62811610138549
Albinenleitern (Torrentbahn);46.3610207295844;7.62291485588971
Albinenleitern, Abzw. Flaschen;46.3560671988131;7.62105534325133
Albinenleitern, Flaschen;46.3608223489994;7.62294180534824
Albligen, Dorf;46.8518213823738;7.31843987344786
Albligen, Kurried;46.8573932169886;7.31621205154293
Albonago;46.0085345963726;8.97512190380453
Albonago, ai Ronchi;46.0148046969513;8.97322645855478
Albonago, al Bosco;46.01432432633;8.97404392546344
Albonago, Gradinata;46.0089401467661;8.97229221065916
Albonago, Paese;46.0113297140909;8.97469071246809
Albonago, Roccolo;46.007436475766;8.97632564628542
Albonago, Sentiero Castagni;46.0130204421814;8.97471766192662
Albonago, Sentiero di Camà;46.0129143832672;8.97211254760231
Albonago, Via Max Frisch;46.0132949466621;8.97160949104314
Albonago, Via Ruscello;46.0110115270111;8.97146576059766
Albstadt-Ebingen;48.2102889622961;9.02696367885829
Albulapass, Hospiz;46.5826252078644;9.83818729629534
Alby-sur-Chéran, Chede;45.8195876561274;6.01135520226064
Alby-sur-Chéran, Cret Vial;45.8201698831761;6.03331901096042
Alby-sur-Chéran, Croix Rouge;45.8117802171457;6.00812126723736
Alby-sur-Chéran, La Combe;45.8206957604387;6.0231141493314
Alby-sur-Chéran, P+R;45.8155682452588;6.00381833702583
Alchenflüh, Bernstrasse Ost;47.0770458797451;7.57422616748366
Alchenstorf, Dorf;47.1252556476054;7.6377909569968
Alchenstorf, Oberalchenstorf;47.124082107938;7.64408814713936
Alchenstorf, Unteralchenstorf;47.1261052252715;7.62677761161196
Alchenstorf, Wil;47.1135374263215;7.65025957314212
Aldesago;46.0109803321008;8.98048484605147
Aldesago, Arcate;46.0097449995099;8.98043094713442
Aldesago, Narbostra;46.0086344244376;8.97752040561347
Aldesago, Paese;46.0072929697579;8.97951466554449
Aldesago, Pontaccio;46.0087030561278;8.97664903978775
Aldesago, Ronchée;46.0099508901911;8.98006263786788
Aldesago, Via Rava;46.0091522796336;8.97995484003377
Alès;44.127962011318;4.08498095726806
Alesse;46.1489762959745;7.05388602223783
Alex, Le Pont;45.890055455468;6.23367026880549
Alex, Rond Point;45.8903993479862;6.23367026880549
Alexanderplatz;46.8524848726043;9.53133177835024
Algetshausen, Dorf;47.4477380122055;9.10695865492027
Alikon, Oberalikon;47.1993561882463;8.35939864167762
All'Acqua;46.4859748561243;8.47416740239271
Allaman;46.4757559638605;6.39969689963957
Allaman, Château;46.4713511036567;6.3968043244243
Allaman, gare;46.4758735044034;6.3996609670282
Allaman, gare sud;46.4753291039645;6.39978673116799
Allaman, Grand-Rue;46.4697424984231;6.39638211624071
Allamps E.S.A.T;48.5247511987997;5.84411584579283
Allan Menuiserie;44.5002678021254;4.78673587416708
Allanche;45.1825235627444;2.92568711664476
Alle;47.424228706409;7.1282485614676
Alle, centre sportif / loisirs;47.4248547040901;7.12138543269597
Alle, poste/gare;47.4245022014572;7.12865280334551
Alle, rue de l'église;47.4264591690081;7.12885043270804
Alle, zone industrielle;47.4300751132738;7.14634961444513
Allègre;45.1996737729129;3.71087755714441
Allegre Maison Retraite;45.1978190898676;3.71495590853488
Allenlüften, Dorf;46.9461573212254;7.2718891754183
Allens, village;46.5998361199926;6.50973153880669
Allensbach;47.7144664244476;9.06885212056261
Allensbach, Am Kappelhof;47.7196217837196;9.05665299900257
Allensbach, Bahnhof;47.7149559939646;9.06800770419542
Allensbach, Bahnhof Ost;47.7143636747057;9.0696965369298
Allensbach, Gewerbegebiet;47.7229033000591;9.07368505679185
Allensbach, Himmelreich;47.7132878123005;9.07557151888876
Allensbach, Höhrenbergstrasse;47.7180867124841;9.06341731309293
Allensbach, Konstanzer Strasse;47.712302592974;9.08017089314409
Allensbach, Scheffelstrasse;47.7190113867945;9.07218487026716
Allensbach, Steig;47.7162977535067;9.06998399782076
Allensbach, Stöckenhof;47.75159416172;9.0529339737258
Allensbach, Unterhaus;47.720727732208;9.0527453275161
Allensbach, Vereinshaus;47.7173493787249;9.06348917831567
Allenwinden, Dorf;47.1644260067042;8.55547391876968
Allenwinden, Egg;47.1696599759883;8.55347067568582
Allenwinden, Grüt;47.1667407428408;8.55347067568582
Allenwinden, Inkenberg;47.1757300014976;8.5495719873522
Allenwinden, St. Meinrad;47.1598084481296;8.55814191516389
Allerheiligenberg, Höhenklinik;47.3523718958387;7.8140224494599
Allerheiligenberg, Rank;47.3443864926817;7.81791215464068
Allerheiligenberg, Rest. Aller;47.352079768234;7.81784927257078
Allèves, Aiguebelette;45.7582883183654;6.06718549717644
Allèves, Chef Lieu;45.7516444497671;6.07922292198532
Allex;44.7620398411675;4.92114180699575
Alleyras;44.9193518005132;3.67358848969542
Allières;46.4698229298139;7.00789227968451
Allinges, Chez Laurent;46.3480252797093;6.46602850022819
Allinges, Commelinges;46.3324030906195;6.45479057602229
Allinges, Cret Tonniaz;46.334201823271;6.46083623788525
Allinges, La Chavanne;46.3409496446497;6.48006916812093
Allinges, Lavoir De Noyer;46.3385557518574;6.47827253755244
Allinges, Les Combes;46.336229978435;6.47016973368856
Allinges, Leyriat;46.3370486619616;6.47846118376213
Allinges, Mesinges;46.3291714257577;6.44373231487324
Allinges, Noyer;46.3351259766956;6.47903610554405
Allinges, Valere;46.3307593693974;6.44887966145196
Allinges, Village;46.3357213961329;6.46465407784329
Allmannsweiler, Rathaus;48.0286770498397;9.5939892694263
Allmenalp;46.4922895677753;7.6494510893863
Allmend;46.5940339124079;7.93197124628121
Allmend/Messe;47.0352459101915;8.30279579561737
Allmendhubel (Standseilbahn);46.5638400651027;7.88907669145854
Allmendingen (D);48.3277321075288;9.72238547300338
Allmendingen b. B., Garten-C.;46.9200135144239;7.51408395920348
Allmendingen b. B., Hirschen;46.9161295000885;7.52038114934604
Allmendingen b. B., Käserei;46.9148715835919;7.52393847787165
Allmendingen b.Thun,Wendeplatz;46.7414760379233;7.59308180529995
Allmendingen bei Thun, Dorf;46.7433289852216;7.5953365766634
Allmendingen bei Thun, RAZ;46.7370065408641;7.58772784620585
Allmendingen, Längmatt;46.7450402886139;7.5998012036261
Allonzier-C., Chez Falconnet;45.9995118910789;6.12253070183875
Allonzier-Caille, Chef Lieu;45.9778414060375;6.22218081632
Allonzier-Caille, Chez Poraz;46.0048158725969;6.11958422770643
Allonzier-Caille, Pae;45.9969033936562;6.1242554671845
Allschwil, Bettenacker;47.5505473201469;7.55498425409514
Allschwil, Binningerstrasse;47.5521176355691;7.53975781002719
Allschwil, Dorf;47.5511233100323;7.53655980761528
Allschwil, Engehollenweg;47.5498803765816;7.52761258738421
Allschwil, Friedhof;47.5538940360616;7.53769168487343
Allschwil, Gartenhof;47.548892071874;7.54371039727787
Allschwil, Gartenstrasse;47.5525359742115;7.5442673527541
Allschwil, Grabenring;47.554039540601;7.54157240690137
Allschwil, Hagmattstrasse;47.5556764388297;7.54434820112968
Allschwil, Im Brühl;47.5572284136292;7.54689043338409
Allschwil, Kirche;47.5539728510706;7.55397814097678
Allschwil, Kreuzstrasse;47.5594896071299;7.55071725649498
Allschwil, Letten;47.5481705370359;7.54692636599546
Allschwil, Lindenplatz;47.5576648982593;7.56040109525913
Allschwil, Merkurstrasse;47.5558037509932;7.55726597491712
Allschwil, Paradies;47.5466364845822;7.55387932629552
Allschwil, Parkallee;47.5528391160685;7.55672698574657
Allschwil, Reservoir;47.5489648311382;7.52303117943456
Allschwil, Rosenberg;47.5511233100323;7.53205026488837
Allschwil, Spitzwald;47.5409728349187;7.54300971135616
Allschwil, Wänglismatten;47.561635528936;7.5544901806888
Allschwil, Ziegelei;47.5516326010787;7.54821994000478
Allschwil, Ziegelhof;47.5424221568471;7.51217054764804
Allschwil, Zum Sporn;47.5445142036117;7.54410565600294
Almens;46.7382932522361;9.45437310794901
Alosen, Dorf;47.1409309209807;8.63764281781953
Alosen, Giregg;47.1441143008511;8.64259253503572
Alosen, Hundtal;47.1431122594149;8.65242010424536
Alosen, Raten;47.1420490972409;8.66371192736831
Alosen, Schmidte;47.1400754697125;8.63314225824547
Alp Camp;46.4014133598058;10.1187131932592
Alp Darlux;46.6244638935331;9.77986866804219
Alp Grüm;46.3747506352166;10.0311364361982
Alp Languard;46.4877994563472;9.92189231448125
Alp Pradaschier;46.7831550245374;9.52023758458982
Alp Sellamatt;47.182153457918;9.29633249999186
Alpe Casaccia;46.5460740316081;8.81838385300954
Alpe di Neggia, Alpe;46.1106641717851;8.84541415991246
Alpe di Neggia, Bv. Trecciura;46.1198804411326;8.8491691178006
Alpe Foppa;46.1167296467715;8.89341114554965
Alpiglen;46.600107697467;8.00190509115965
Älpli;47.0125819013157;9.58849157988672
Alpnach Dorf;46.9406376366357;8.27523548269675
Alpnach Dorf, Bahnhof;46.9405149705143;8.27516361747401
Alpnach Dorf, Hofmättelikreuz;46.9380125202915;8.26936050073779
Alpnach Dorf, Kantonalbank;46.9396747000263;8.27060915898289
Alpnach Dorf, Schoried;46.9335225370312;8.255607293736
Alpnach Dorf, untere Feldstr.;46.9359147880842;8.26391671011527
Alpnachstad;46.9550305544158;8.27783161386821
Alpnachstad (See);46.9559257678385;8.27942163192133
Alpnachstad PB;46.9554965577924;8.27718482686356
Alpnachstad, Bahnhof;46.9552022403425;8.27773279918695
Alpthal, Eigen;47.0870044920557;8.72173411157767
Alpthal, Gribsch;47.082961324179;8.72247971326359
Alpthal, Grund;47.0788933796614;8.72259649425054
Alpthal, Kirche;47.0707810323224;8.71564353395049
Alpthal, Malosen;47.0625634217093;8.71269705981817
Alpthal, Rütli;47.0653048056763;8.71410741481443
Alpthal, Schnüerlismatt;47.0741215602009;8.71933560976873
Alpthal, Stei;47.0552136142533;8.70953499001763
Alptrider Sattel;46.9701735869519;10.3672680492569
Alt St. Johann (Sellamattbahn);47.1933560110485;9.28885851682695
Alt St. Johann, Dorf;47.1932278208172;9.28400761429203
Alt St. Johann, Horb;47.1863722445573;9.26702945541981
Alt Strass;46.9070534308009;9.558200388502
Altanca;46.5243156937151;8.68143568792646
Altanca (funicolare);46.5204587198694;8.67017979741487
Altavilla;46.9336513532717;7.15384156391573
Altbach;48.720390494744;9.38238212106965
Altbüron, Feld;47.1875444093989;7.87087682379974
Altbüron, Gruenbach;47.1943998342625;7.86254045796195
Altbüron, Halde;47.1835271951545;7.87631163126942
Altbüron, Hiltbrunnen;47.1788013898752;7.88162965775215
Altbüron, Linden;47.1830387593208;7.88380358074002
Altbüron, Ludligen;47.2012299600962;7.86127383341117
Altbüron, Post;47.1810055968786;7.87975217880808
Altdorf SH, Dorf;47.7846032120828;8.66010968307849
Altdorf UR;46.8757387111707;8.63157918965088
Altdorf UR, Allmend;46.8830272621613;8.62717744475808
Altdorf UR, Bahnhof Ost;46.8757387111707;8.63177681901342
Altdorf UR, Bahnhof West;46.8758001184315;8.6308425711178
Altdorf UR, Chornmatt;46.8810931602184;8.63080663850643
Altdorf UR, Dätwyler AG;46.877316855471;8.6467158021904
Altdorf UR, Frauenkloster;46.8787414439286;8.64396695742061
Altdorf UR, Gemeindehaus;46.8828000855471;8.6411911631923
Altdorf UR, Hagenschulhaus;46.8796870550363;8.63876571192484
Altdorf UR, Kollegium;46.875241309768;8.65012940027053
Altdorf UR, Langmatt;46.8777344111785;8.63516346763502
Altdorf UR, Moosbad;46.8901674854022;8.62912678892489
Altdorf UR, Post;46.8813387643299;8.64235897306182
Altdorf UR, Pro Familia;46.873644681522;8.63690619928645
Altdorf UR, Ringli;46.8857655856631;8.63502872034238
Altdorf UR, Ruberst/Neuland;46.8663487142024;8.63480414152132
Altdorf UR, Spital;46.8840403353524;8.63725654224731
Altdorf UR, Steinmattstrasse;46.8706109569834;8.63621449651758
Altdorf UR, Telldenkmal;46.8817747088589;8.64400289003198
Alteckendorf Altdorf;48.795671670049;7.58811412177808
Alteckendorf Eckendorf;48.790037780741;7.60221767174072
Alteckendorf Mairie;48.7926180858793;7.59499521685539
Altenburg, Anwandel;47.6583409695326;8.60400091042457
Altenburg, Grosse Breite;47.6568888044739;8.60347090440687
Altenburg, Industriegebiet;47.6609971169477;8.59835050728668
Altenburg, Rathaus;47.6575725372204;8.59934763725219
Altenburg, Schule;47.6557391451589;8.6001112052438
Altendorf;47.1939664364733;8.82290237888929
Altendorf Seestatt;47.1948942696714;8.83247841981934
Altendorf, Bahnhof;47.1930324827265;8.8220579625221
Altendorf, Bitzi;47.1909203437039;8.83537099503461
Altendorf, Letzi;47.1947721872827;8.81576975553239
Altendorf, Lidwil;47.1976715681387;8.8124909047449
Altendorf, Schweizerhofplatz;47.1919825281702;8.83210112739996
Altendorf, Stoglen;47.1927394742422;8.82744785422757
Altendorf, Talstrasse;47.1932888638231;8.818015543743
Altendorf, Tevag;47.2006684458345;8.80776576634977
Altenrhein Schifflände;47.4986458917452;9.56028447996144
Altenrhein, Am Rhein;47.4906887163083;9.56169483495771
Altenrhein, Dorf;47.4903912851551;9.55280151364369
Altenrhein, Flugplatz;47.4885581008644;9.55112166406215
Altenrhein, Hegi;47.4821839489047;9.57046239213193
Altenrhein, Markthalle;47.485407545282;9.54763620075928
Altenrhein, Schulhaus;47.4902152536791;9.55603544866697
Alter Zoll;47.3685824426194;9.52204319831115
Alterswil FR, Beniwil;46.7969383593999;7.24743703338117
Alterswil FR, Dorfplatz;46.7951795046746;7.25995056529069
Alterswil FR, Galteren;46.8026388675052;7.22965039075312
Alterswil FR, Geriwil;46.7915939689283;7.26750539683119
Alterswil FR, Hofmatt;46.7829089713248;7.27636278553384
Alterswil FR, Wengliswil;46.7787320464749;7.28000994558788
Alterswil FR, Wilersguet;46.7678606804211;7.28557950035019
Alterswilen;47.6093868084004;9.15434478616417
Altglashütten, Sparkasse;47.8558028210649;8.11211041023078
Altglashütten, Windgfällweiher;47.8525055728108;8.12221645717853
Altglashütten-Falkau;47.8593891693087;8.11411365331464
Altglashütten-Falkau, Bahnhof;47.859799021884;8.11445501312265
Altikon, Brückenwaage;47.5734728903355;8.78086122358664
Altikon, Herten;47.5687879668163;8.80073195767413
Altishofen, Bäckerei;47.1961700138306;7.96829911637606
Altishofen, Kreisel;47.2004059969134;7.97243136668359
Altishofen, Unterdorf;47.2017426418406;7.96715825596507
Altkirch;47.6274011217408;7.2386604930541
Altkirch, Fontaine;47.6234657512452;7.23941507789286
Altkirch, Gare;47.6268925674548;7.23917253276612
Altkirch, Hôpital Saint-Morand;47.6235868439861;7.25300658814348
Altmatt;47.1316485392139;8.69612314282386
Altnau;47.6213708024252;9.26591554446734
Altnau (See);47.6231327447614;9.26908659742072
Altnau, Bahnhof;47.6210922768953;9.26605029175998
Altnau, Kirche;47.6077879274853;9.25757019547671
Altnau, Längiacker;47.6183614371278;9.26536757214395
Altnau, Rössli;47.6092293450255;9.26042683808061
Altnau, Schmitteweg;47.6119061579241;9.25542322194737
Altnau, Unterhof;47.6154427322866;9.26090294518126
Altnau, Zentrum;47.6121181168923;9.2584774939138
Altoggio;46.1672513851495;8.345807131427
Altreu;47.1903831388678;7.44888423587301
Altreu, Info Zentrum Witi;47.191762767611;7.44923457883387
Altreu, Mitte;47.1947843955342;7.44799490374161
Altreu, Nord;47.1976715681387;7.4478242238376
Altshausen;47.9307089258168;9.55148099017585
Altshausen, Abzw. Blönried;47.9089277017818;9.562476369255
Altshausen, Bahnhof;47.9307871723873;9.55020538247222
Altshausen, Ebenweiler Str.;47.9262245976274;9.54096171819734
Altshausen, Ingenhart Abzw.;47.9093552269523;9.55598154974991
Altshausen, Kapellen;47.9286142813094;9.5435758156745
Altshausen, Kindergarten;47.9337965660272;9.54021611651142
Altshausen, Mendelbeuren;47.9126127323428;9.55550544264926
Altshausen, Rathaus;47.9340674028645;9.53852728377704
Altshausen, Schönenberg;47.9402420978751;9.54093476873882
Altshausen, Schule;47.9381418214125;9.54210257860833
Altshausen, Stuben;47.9128776590697;9.58000250045061
Altshausen, Weiher;47.9343141640813;9.53340688665685
Altstätten SG;47.3742342735615;9.55652053892046
Altstätten SG, Allmend;47.3668362755064;9.55255896851694
Altstätten SG, Altersh. Forst;47.3678158397858;9.53723370976773
Altstätten SG, Bächler;47.3896292460125;9.53743133913026
Altstätten SG, Bahnhof;47.3740456861725;9.55636782532214
Altstätten SG, Baumert;47.3861686581547;9.51742585775014
Altstätten SG, Bleichi;47.3734008338756;9.56299739211986
Altstätten SG, Breite;47.3790156510596;9.53799727775934
Altstätten SG, Depot;47.3804937754467;9.54502210328213
Altstätten SG, Eichbergerstr.;47.3752380338001;9.54972029221873
Altstätten SG, Elsenacker;47.3777382262335;9.54616296369312
Altstätten SG, Ergeten;47.3872816663816;9.51174850515371
Altstätten SG, Ergeten-Loch;47.3853475714483;9.50960153162437
Altstätten SG, Feldstrasse;47.378267448845;9.54540837885435
Altstätten SG, Fleuben;47.360276985122;9.55672715143583
Altstätten SG, Hirschen;47.3761991923633;9.54716907681147
Altstätten SG, Kapf;47.3956558433994;9.55494848717303
Altstätten SG, Klosterguet;47.3765763510639;9.55016944986085
Altstätten SG, Oberkirlen;47.3755665330012;9.55326863759149
Altstätten SG, Rathaus;47.3780362947945;9.54182410087022
Altstätten SG, Ruppen;47.3908334043172;9.50926017181635
Altstätten SG, Ruppendörfli;47.3898603492346;9.5072389624268
Altstätten SG, Ruppenhalde;47.3886379233268;9.50784981682009
Altstätten SG, Sägentobel;47.3900914514434;9.52393864356091
Altstätten SG, Spital/Heime;47.3812297807773;9.54171630303611
Altstätten SG, Stadt;47.3772394138519;9.53814100820482
Altstätten SG, Tannenbaum;47.3870262239484;9.52213302983958
Altstätten SG, Traube;47.384471731531;9.53753913696437
Altstätten SG, Unterlitten;47.3742403570144;9.54962147753746
Altstätten SG, Wieswanne;47.3871052895957;9.53969509364656
Altstätten SG, Ziel-Kornberg;47.3890028295513;9.53476334273606
Altstätten Stadt;47.376837927288;9.53749422120016
Alttann, Waldseer Strasse;47.8375116011037;9.79183422762832
Altwis, Dorf;47.2388500763004;8.25096300371646
Alvaneu;46.6712510839191;9.65072686277919
Alvaneu Bad, Badezentrum;46.6695251109689;9.64995431163474
Alvaneu Bad, Dorfplatz;46.6682737461149;9.64639698310913
Alvaneu Bad, Solas;46.6721571976541;9.66180309023392
Alvaneu Dorf, Crappa Naira;46.6726872979658;9.62937390847269
Alvaneu Dorf, Dorfplatz;46.678770751373;9.64792411909234
Alvaneu, Bahnhof;46.6711031455402;9.64991837902337
Alvaschein, Gipsmühle;46.6733406702658;9.56173076756908
Alvaschein, Solisbrücke;46.6788816894533;9.52995735596535
Alvaschein, vischnanca;46.6748014835321;9.55089708524109
Alzing;49.2785772613563;6.55437780843364
Amagne - Lucquy;49.5238338061334;4.47387961012322
Amance la-Ville-au Bois Eglise;48.2862234448092;4.50036194470275
Amance Mairie/Ecole;48.2951052054444;4.51613636109409
Amancy, Pierre longue;46.0701441336098;6.34575306682068
Amancy, Sur;46.0719639371467;6.3269423447686
Amancy, Vallières;46.0691968148716;6.3206361714732
Ambazac;45.9529585747453;1.40668986990425
Ambérieu;45.9538142051533;5.34149047795231
Ambert;45.549607845104;3.73519495188891
Ambert Ville;45.5521996053188;3.73981229244993
Ambilly, Croix-d'Ambilly;46.1927529356493;6.2243816887664
Ambilly, Ecole Fraternité;46.1969377917849;6.22881038311772
Ambilly, Edelweiss;46.1996238910867;6.22745392703852
Ambilly, Foron;46.2006622322457;6.23063396314474
Ambilly, Jean Jaurès;46.1982932934929;6.22255810873938
Ambilly, Jean Moulin;46.1941831600696;6.21697957082422
Ambilly, La Paix;46.1968258681311;6.21990807865086
Ambilly, Louis Lachenal;46.1905018113863;6.22413016048681
Ambilly, Martinière;46.1993130066832;6.22466016650452
Ambrì, Chiesa;46.5093312996181;8.69520686123393
Ambrì, sotto;46.5078289233245;8.7036240754473
Ambrì-Piotta;46.5107656283599;8.68992476736257
Ambrì-Piotta, Stazione;46.5106543455878;8.6897630706114
Ambronay-Priay;46.0114420149762;5.33804094726081
Ambronay-Priay D 1075;46.0105997527787;5.34053826375101
Amden (Talstat. Niederschlag);47.1497840331614;9.14326855870943
Amden, Bellevue;47.1427762047039;9.1277905863619
Amden, Brugg;47.149545769947;9.13855240346715
Amden, Dorf;47.1490142558505;9.14128328193125
Amden, Forten;47.1447863912316;9.13194080297511
Amden, Hinterstein;47.1515495913905;9.15529700036547
Amden, Lehni;47.1410958992848;9.13228216278312
Amden, Mennweg;47.1486049252798;9.15346443718561
Amden, Montana;47.1471936270523;9.13654017723044
Amden, Sell;47.1510975163229;9.16491795705972
Amden, Soldanella;47.1512196991528;9.1591777223934
Amden, Stocksitten;47.1469736810965;9.15442563453975
Amden, Vorderdorf;47.1487271138399;9.14841590528815
Amendingen, Feldschlössle;48.0004999000857;10.1759538431713
Amendingen, Fraunhoferstrasse;48.0043947801276;10.1732229647072
Amertsfeld;47.7972832104098;8.23062514568116
Amifontaine;49.4847429907367;3.91052812906777
Aminona;46.3322976458353;7.52525900133949
Aminona, Colombire;46.3372471288495;7.52059674501426
Amlikon, Mitte;47.5691576849384;9.05630265604171
Amlikon, Oberdorf;47.5676666745843;9.05426348034648
Amlikon, Unterdorf;47.569866809115;9.05751538167545
Ammerswil AG, Dorfplatz;47.3693125301974;8.20746657765334
Ammerswil AG, Kirche;47.3711681239724;8.20840980870179
Ammerswil AG, Rebrain;47.3689414036081;8.20273245610537
Ammerzwil BE, Dorf;47.0720781119698;7.3414547110302
Ammerzwil BE, Sandhubel;47.0670792870998;7.34384422968629
Ammerzwil BE, Unterdorf;47.0686701512591;7.33974791199014
Amplepuis;45.9707242468308;4.32696014538502
Amriswil;47.5504503107013;9.30222544825651
Amriswil, Almensberg;47.5385895531721;9.32775556863474
Amriswil, Bahnhof;47.5502684175067;9.30219849879798
Amriswil, Grenzstrasse;47.5443989916144;9.28741222921932
Amriswil, Hemmerswil;47.5436713310447;9.30676194044194
Amriswil, Kirchstrasse;47.5478855583551;9.29916219313723
Amriswil, Köpplishaus;47.5448901567889;9.28168097770583
Amriswil, Maihalde;47.5447385630903;9.30665414260783
Amriswil, Marktplatz;47.5450538774911;9.2996203339322
Amriswil, Mühlebach;47.544720371817;9.27653363112711
Amriswil, Quellenhof;47.5451387695057;9.29291890191173
Amriswil, Säntisstrasse;47.5488314390766;9.3058636251577
Amriswil, Schrofen;47.5473155963453;9.27432377552787
Amriswil, St. Gallerstrasse;47.5405665324596;9.29747336040285
Amriswil, Strassenverkehrsamt;47.5476915294306;9.2780338176518
Amriswil, Zentrum;47.5463878789689;9.30186612214281
Amsoldingen, Kirche;46.7272536249048;7.58003826737272
Amsoldingen, Kreuz;46.7278693914536;7.58347881491138
Amsoldingen, Sandgrube;46.7223641890227;7.5831464382562
Amsoldingen, See;46.7208492360962;7.58171811695426
Amsoldingen, Steghalten;46.7315700003385;7.58423339975014
Amsteg (Talstation Arnisee);46.7748562593788;8.66481685516793
Amsteg, Grund/Seilbahn;46.7750469792378;8.66846401522196
Amsteg, Post;46.7697311792689;8.67097031486501
Amsteg, Schulhaus;46.77218611043;8.67003606696939
Amsteg, St. Anton;46.7695158290919;8.67874972522656
Amsterdam Centraal;52.3791877289914;4.89942952657556
Amtzell, Fohlenweide;47.7034589623354;9.75105071372362
Amtzell, Geiselharz;47.695037077326;9.76045607474966
Amtzell, Hinterholz;47.6992391210916;9.7548775368345
Amtzell, Karbach;47.7041481303188;9.7992363455705
Amtzell, Kirche;47.7062578949588;9.74681964873483
Amtzell, Schattbuch;47.6969355965907;9.7514908882129
Amtzell, Waldburger Strasse;47.7094254041503;9.74827491949531
Anchamps;49.9304921769796;4.67248813631685
Ancy-sur-Moselle;49.0574789382049;6.06267595444953
Andeer, Bärenburg;46.5934783493047;9.42745958203304
Andeer, Heilbad;46.6050699189;9.42683076133407
Andeer, posta;46.6021321411981;9.42663313197154
Andeer, Rofflaschlucht;46.582044830793;9.42154866746271
Andeer, Tgavugl;46.6048230529554;9.42752246410294
Andelat;45.0499593844659;3.06599498089092
Andelfingen;47.5937653441028;8.67800412354064
Andelfingen, Bahnhof;47.5938683314162;8.67779751102526
Andelot;46.8594940232805;5.92353590007289
Andermatt;46.6368876890174;8.59328400908354
Andermatt (Gemsstockbahn);46.6325390681399;8.59178382255885
Andermatt (Gondelbahn Gütsch);46.6377820428927;8.59536810054298
Andermatt, Bahnhof;46.6371344088043;8.59446978525874
Andermatt, Bahnhofplatz;46.6375970053726;8.59284383459426
Andermatt, Bodenstrasse 1;46.6348768808111;8.59057109692512
Andermatt, Bodenstrasse 2;46.6333162941128;8.58949311858403
Andermatt, Brücke;46.6339516372117;8.59762287190644
Andermatt, Gemeinde Werkhof;46.6337665865935;8.59134364806957
Andermatt, Gemeindehaus;46.6335321882355;8.59478419560823
Andermatt, Gemsstockbahn 1;46.6322059678775;8.59225094650665
Andermatt, Gemsstockbahn 2;46.6320640912173;8.59215213182539
Andermatt, Kreisel Oberalp Süd;46.6345499632132;8.59654489356534
Andermatt, Krone;46.6331929256561;8.59614963484028
Andermatt, Oberwiler;46.6367951688073;8.60000340740969
Andermatt, Poststrasse;46.6350187500976;8.59615861799312
Andermatt, Tourist Info;46.6368321769104;8.59507165649918
Andermatt, Unteralp 1;46.6352839829833;8.60140477925311
Andermatt, Unteralp 2;46.6353888421377;8.60131494772468
Andermatt, Unterwiler 1;46.635296319365;8.59966204760167
Andermatt, Unterwiler 2;46.6354998692562;8.59961713183746
Andiast, S. Clau;46.7818201723613;9.10871036972454
Andiast, vitg;46.7844467854535;9.11385771630326
Andilly, Jussy;46.0619979077662;6.07800121319875
Andrézieux;45.5217325807411;4.25522966993809
Andwil SG, Grünau;47.4398885669409;9.26528672376837
Andwil SG, Linden;47.4404475444992;9.27594972619235
Andwil SG, Otmarsegg;47.4352038585341;9.27291342053161
Andwil SG, Post;47.4390986972226;9.27068559862668
Andwil SG, St. Margreten;47.4271337589719;9.2711347562688
Andwil TG, Eckartshausen;47.572642604563;9.21506191622626
Andwil TG, Volg;47.5670060100849;9.21517869721321
Angeli Custodi;46.3575179664649;10.0689195770536
Angers-St-Laud;47.4640832127169;-0.55852752797906
Anglikon, Brändliacker;47.3645911185622;8.267923196283
Anglikon, Bursthalde;47.3656315690271;8.26265906871732
Anglikon, Kesselackerstrasse;47.3657228356327;8.26525519988879
Anglikon, Knobelstrasse;47.3670309729608;8.26277584970427
Anglikon, Zentrum;47.364086097196;8.26356636715441
Angoulême;45.6540201652841;0.164688141060557
Anières (lac);46.2784756881723;6.22134538310565
Anières, Bassy;46.2785812366788;6.23009497397419
Anières, Chavannes;46.2831879204491;6.22927750706553
Anières, Courbes;46.2808039168275;6.2271754493004
Anières, Courson;46.2825112216316;6.23605080430874
Anières, douane;46.2683793442345;6.23795523271133
Anières, Foyer;46.2717512083864;6.23294263342525
Anières, Gravière;46.2888619284255;6.23702996796856
Anières, mairie;46.2747378982174;6.22761562378968
Anières, Marguerite;46.2728440701176;6.22061774772541
Anières, Nant-d'Aisy;46.2707700980419;6.21905467913083
Anières, Sous-Chevrens;46.2866395751855;6.23406552753056
Anières, village;46.2769110629372;6.22324981150825
Annecy;45.9021216829954;6.12163238655451
Annecy, 4 Chemins;45.9063411178329;6.11405060555548
Annecy, Alpins;45.9097976899015;6.1238332590009
Annecy, Andre Theuriet;45.9057597925261;6.13707442629067
Annecy, Anemones;45.9181163325808;6.1286572120773
Annecy, Annapurna;45.9163039622074;6.13348116515369
Annecy, Aravis;45.914885272372;6.13426269945098
Annecy, Arcadium;45.9189100071755;6.11815590640448
Annecy, Arcalod;45.9169851704288;6.13627492568769
Annecy, Balmettes;45.8941007472006;6.12311460677351
Annecy, Bel Air;45.9140790404005;6.1239590231407
Annecy, Bonlieu;45.9019216425669;6.12697736249576
Annecy, Boschetti;45.8960388814889;6.12140780773344
Annecy, Bouverie;45.8846529371915;6.11827268739143
Annecy, Capucins;45.9052597228754;6.12054542506057
Annecy, Cesiere;45.8819702415778;6.11888354178472
Annecy, Chaux-Balmont P+R;45.842139807806;6.05819336118115
Annecy, Chorus;45.9076975198742;6.10646882455646
Annecy, Clinique Generale;45.8964139964415;6.12686058150881
Annecy, Colombiere;45.925971336369;6.12376139377816
Annecy, Courier;45.904140800716;6.12451597861693
Annecy, Croix-Rouge;45.8941445122696;6.11845235044828
Annecy, Eglise Des Fins;45.9112977626989;6.12369851170827
Annecy, Fier;45.9212659664661;6.12093170063279
Annecy, Forum;45.9103414709751;6.12170425177724
Annecy, France Barattes;45.9068661806193;6.13974242268488
Annecy, France Maquis;45.9203785877079;6.13128029270729
Annecy, France Mont-Blanc;45.913172796683;6.13516999788807
Annecy, France Thones;45.9106352355455;6.13765833122543
Annecy, Galbert;45.9081475629981;6.12368952855543
Annecy, Galeries Lafayette;45.9070036962427;6.13121741063739
Annecy, Gare Quai Nord;45.9015278108669;6.12158747079029
Annecy, Gare routière;45.9020779242132;6.11820082216869
Annecy, gare routière;45.9020779242132;6.11820082216869
Annecy, General De Gaulle;45.9111540074789;6.13148690522267
Annecy, Geneve Bellevue;45.919816157203;6.12386919161227
Annecy, Geneve Fier;45.9227344846408;6.12392309052933
Annecy, Geneve Vernet;45.9163977069543;6.12388715791796
Annecy, Henri Dunant;45.9073974890978;6.13527779572218
Annecy, Hotel de ville;45.9000712344349;6.12822602074086
Annecy, Imperial;45.9054597512763;6.14379382461682
Annecy, Ipac - St-Michel;45.8904868839236;6.12069813865889
Annecy, La Basilique;45.8923813779077;6.12653718800648
Annecy, Le Rabelais;45.9159914785741;6.09020033475879
Annecy, Leandre Vaillat;45.9211597317288;6.12805534083685
Annecy, Loverchy Cite;45.8923501161552;6.11838048522554
Annecy, Lycee Berthollet;45.9060473305355;6.12978908933545
Annecy, Lycee Gabriel Faure;45.8972454922191;6.12024898101677
Annecy, M.J.C. Romains;45.9124040404113;6.12137187512207
Annecy, Mandallaz;45.8997586594053;6.11660182096274
Annecy, Marechal Leclerc;45.9134477963406;6.12091373432711
Annecy, Marjolaine;45.8922938449562;6.10901105681087
Annecy, Maveria;45.9079787972542;6.14290449248542
Annecy, Montremont;45.9104852282996;6.13814342147892
Annecy, Novel;45.9180975842247;6.13398422171287
Annecy, Paix;45.9046158765666;6.12967230834849
Annecy, Palais de justice;45.9030531117492;6.12978908933545
Annecy, Paradis;45.8945008836913;6.12784872832148
Annecy, Parc Des Sports;45.9145665308995;6.11871286188071
Annecy, Parmelan;45.9050659446748;6.1329960749002
Annecy, Paul Grimault;45.9027217999563;6.12333020244173
Annecy, Paul Guiton;45.9093664114688;6.13123537694308
Annecy, Piscine Marquisats;45.8969891677805;6.13137910738856
Annecy, Piscine Patinoire;45.9215971675768;6.12209951050231
Annecy, Place Des Romains;45.907222470396;6.12201866212673
Annecy, Plaine Ecole;45.9124352908739;6.13127130955445
Annecy, Plaine Edelweiss;45.9189912488164;6.1268156657446
Annecy, Plaine Novel;45.9153415069803;6.12933094854048
Annecy, Préfecture Paquier;45.9021404367486;6.13082215191233
Annecy, Pringy Bourg;45.9461692725616;6.12077000388163
Annecy, Pringy chappelle;45.9483491851535;6.11680843347811
Annecy, Pringy Gare;45.9391542442898;6.12238697139327
Annecy, Pringy Grande Ferme;45.9550507863423;6.1102237824446
Annecy, Pringy Grpe Scolaire;45.9462379817167;6.11930574996831
Annecy, Rue De Seyssel;45.9057160366115;6.11805709172321
Annecy, Rulland;45.9158164869708;6.11629639376609
Annecy, Saint Francois;45.8938569126128;6.12756126743052
Annecy, Salle Y. Martinet;45.9086851097252;6.11823675478006
Annecy, Salomons;45.9091288943793;6.13908665252738
Annecy, Sibra;45.8880295726894;6.11937761519105
Annecy, Sommeiller;45.9021216829954;6.12476750689652
Annecy, St Bernard De Menthon;45.9046908881713;6.13502626744259
Annecy, St-Michel;45.8906306926641;6.12209951050231
Annecy, Tresum;45.8960326295516;6.13055265732705
Annecy, Vaugelas;45.9013965330129;6.12530649606707
Annecy, Vieux Moulins;45.886460088015;6.11698809653496
Annecy, Visitation;45.8906431977544;6.12790262723853
Annecy, Vovray;45.8818576780909;6.11467942625445
Annecy-le-V, C.E.S. Barattes;45.9128977956628;6.15469038901471
Annecy-le-V, Coll Mont-Blanc;45.9157164915212;6.13743375240437
Annecy-le-V, Croix-Batailleur;45.9247965934825;6.14609351174448
Annecy-le-V, Espace Rencontre;45.9248590804327;6.15582226627285
Annecy-le-V, Glaisins Hameau;45.922765729286;6.1629638727826
Annecy-le-V, Parc Glaisins;45.9304888657813;6.1685513938506
Annecy-le-V, Pre De Challes;45.9270585762354;6.16508389685341
Annecy-le-Vieux, Albigny;45.9063786224823;6.14604859598027
Annecy-le-Vieux, Alery Banque;45.8992835419901;6.11874879449208
Annecy-le-Vieux, Arc-En-Ciel;45.9247466038717;6.14822251896814
Annecy-le-Vieux, Barallaz;45.9131790466904;6.15807703763631
Annecy-le-Vieux, Bellevue;45.9219971059054;6.16769799433057
Annecy-le-Vieux, Bergeronette;45.9222158209594;6.17167753103977
Annecy-le-Vieux, Bossons;45.9241717201096;6.141503120642
Annecy-le-Vieux, Bouvieres;45.9273397554913;6.16670086436505
Annecy-le-Vieux, Buisson;45.9142665372531;6.14497061763918
Annecy-le-Vieux, Bulloz;45.923178156954;6.17336636377415
Annecy-le-Vieux, Campus;45.9193537100725;6.15871484148812
Annecy-le-Vieux, Carres;45.9125602925483;6.14356924579576
Annecy-le-Vieux, Chapelaines;45.9203035973033;6.14750386674075
Annecy-le-Vieux, Charby;45.9219283667103;6.15287579214053
Annecy-le-Vieux, Chasseurs;45.9065786468514;6.16078096664188
Annecy-le-Vieux, Contamines;45.9125852928494;6.1420331266597
Annecy-le-Vieux, Cygnes;45.908560099323;6.14573418563079
Annecy-le-Vieux, Ecureuils;45.9073349824819;6.15196849370344
Annecy-le-Vieux, Entree Parc;45.9225595143023;6.16505694739489
Annecy-le-Vieux, Evire;45.9229594456937;6.13599644794958
Annecy-le-Vieux, Glaisins;45.9297890789454;6.16838071394659
Annecy-le-Vieux, Grottes;45.9088101198459;6.16092469708736
Annecy-le-Vieux, Hautevue;45.9254152111884;6.15251646602683
Annecy-le-Vieux, I.U.T;45.9193599593837;6.15485208576587
Annecy-le-Vieux, La Cour;45.9206285549911;6.14205109296538
Annecy-le-Vieux, La Salle;45.9171601583467;6.14796200753571
Annecy-le-Vieux, La Varde;45.9297328456914;6.12376139377816
Annecy-le-Vieux, Le Pressoir;45.9273709975428;6.12686956466165
Annecy-le-Vieux, Nant;45.9234093650631;6.14030836131395
Annecy-le-Vieux, Pesse;45.9166101944609;6.15007304845369
Annecy-le-Vieux, Petit Brogny;45.92582761916;6.13234928789554
Annecy-le-Vieux, Petit Port Ch;45.9057972975683;6.15867890887675
Annecy-le-Vieux, PIC VERT;45.9232406457272;6.17361789205374
Annecy-le-Vieux, Piou;45.9272022902553;6.12955552736154
Annecy-le-Vieux, Pommaries;45.9109665001108;6.14488078611075
Annecy-le-Vieux, Ponchy;45.9251152761925;6.15010898106506
Annecy-le-Vieux, Pont De The;45.9117040254378;6.15990061766332
Annecy-le-Vieux, Pre D'Avril;45.9099852012184;6.14938134568482
Annecy-le-Vieux, Pre Faucon;45.9312136356965;6.16537135774437
Annecy-le-Vieux, Pre Felin;45.9247466038717;6.1659911952905
Annecy-le-Vieux, Pre Longe;45.9112102595658;6.15248951656831
Annecy-le-Vieux, Pre Paillard;45.9289705670685;6.16307167061671
Annecy-le-Vieux, Pre Vernet;45.9064161271064;6.15529226025515
Annecy-le-Vieux, Rampignon;45.9214409408841;6.16497609901931
Annecy-le-Vieux, Restau U;45.9189974981685;6.15732245279754
Annecy-le-Vieux, Tilleuls;45.9211159879543;6.14500655025055
Annecy-le-Vieux, Verboux;45.9147415264444;6.15171696542386
Annecy-le-Vieux, Vignieres;45.9152477604492;6.14727928791969
Annecy-le-Vieux, Vire Moulin;45.9288893400403;6.12153357187324
Annemasse;46.1993440952027;6.23640114726959
Annemasse, Adrien Ligué;46.1933001563453;6.2328258524383
Annemasse, Annexion;46.1861672047196;6.23820676099092
Annemasse, Baron de Loë;46.1928213385342;6.22974463101334
Annemasse, Brouaz HPPS;46.1873115243356;6.22301624953435
Annemasse, Chablais-Parc;46.1973979199667;6.23563757927798
Annemasse, Charcot;46.186154766332;6.24844755523131
Annemasse, Château Bleu;46.1906013105389;6.23593402332178
Annemasse, Château Rouge;46.1890528345664;6.23793726640565
Annemasse, Clos Fleury;46.1920067168282;6.23296059973093
Annemasse, Croix d'Ambilly;46.1931011676317;6.22660052751848
Annemasse, Drague;46.1822551930834;6.23825167675514
Annemasse, Dusonchet;46.1882443759623;6.24388411358735
Annemasse, gare;46.1989710318077;6.23723658048394
Annemasse, Gare Rotonde;46.2007492779185;6.23523333740007
Annemasse, Gare routière;46.1991637815447;6.23778455280733
Annemasse, Glières;46.196371953198;6.24676770564977
Annemasse, Hôtel des Impôts;46.1925477264835;6.25107961901415
Annemasse, Jean Mermoz;46.1961045768937;6.25176233863017
Annemasse, Léman;46.1825910523828;6.2427522363292
Annemasse, Libération;46.192641003472;6.23730844570668
Annemasse, Livron De Gaulle;46.1856758862706;6.24754025679422
Annemasse, Lycée des Glières;46.190937118849;6.24213239878307
Annemasse, Lycée Professionnel;46.1853587036737;6.23037345171231
Annemasse, Maison des Sports;46.1915527620888;6.24088374053797
Annemasse, Mont-Rond;46.1966455462093;6.25704443250153
Annemasse, Parc Eu. Maître;46.1965149678966;6.24151256123694
Annemasse, Parc Montessuit;46.1942018149248;6.23113701970392
Annemasse, Périllat Lycée;46.1908562762952;6.23877269962
Annemasse, Perrier;46.1854706506816;6.2418629041978
Annemasse, Place de l'Etoile;46.1936981316111;6.24083882477376
Annemasse, Place Deffaugt;46.1949915313211;6.23605080430874
Annemasse, Place des Marchés;46.1919010016758;6.23638318096391
Annemasse, Résistance;46.1965895841133;6.25513102094609
Annemasse, Romagny;46.1957066190548;6.24299478145595
Annemasse, Route de Bonneville;46.1793318866124;6.24033576821458
Annemasse, Saint-André;46.1905266861914;6.23340975737306
Annemasse, Sous-Cassan;46.1947179300749;6.25116945054257
Annemasse, Tournelles;46.197621764716;6.24314749505427
Annemasse, Valeury Lycée Prof.;46.1858002711032;6.23649996195086
Annemasse, Verdun;46.1865527933382;6.24288698362184
Annonay Boutique SNCF;45.2465967475014;4.67582986917424
Annonay-Gare Routière;45.2440099064242;4.6685624985247
Anor;49.9849624007747;4.09317359266037
Anse;45.9388856191514;4.72036834096709
Anse-Monument;45.9369989594203;4.71832018211901
Anselfingen, Almenstrasse;47.8451086061361;8.76143964714128
Anselfingen, Haldenhof;47.8448975932409;8.74246722833803
Anselfingen, Hauserhof;47.8441801429762;8.72970216814892
Anselfingen, Hof Hewenblick;47.8398933216029;8.76592224040966
Anselfingen, Im Hotzental;47.8458079570231;8.7645568011776
Anselfingen, Rathaus;47.8460249950364;8.76345187337798
Anselfingen, Sonnenring;47.8429441759711;8.76371238481042
Anselfingen, Unterdorfstrasse;47.8450784614894;8.76157439443391
Antagnes, Forêt;46.282970632749;7.00551174418126
Antagnes, Glutières;46.2853607500511;7.01298572734618
Antagnes, Le Boët;46.2809777539312;7.00884449388581
Antagnes, Les Fontaines;46.2778858545405;7.00826957210389
Antagnes, Pissot;46.2754209021301;7.01157537234991
Antagnes, place de la Dîme;46.2766068250645;7.01264436753817
Antagnes, rte d'Antagnes;46.2784881056543;7.01081180435831
Anthy-sur-Léman, Agri Sud Est;46.3495692711486;6.44028278418174
Anthy-sur-Léman, Balises;46.3553852007107;6.41763625586593
Anthy-sur-Léman, Bricorama;46.3488065820331;6.43594392135884
Anthy-sur-Léman, Champ DeL'Eau;46.3618576397479;6.44138771198136
Anthy-sur-Léman, Chenes;46.3578589532713;6.44018396950047
Anthy-sur-Léman, Cimetière;46.3559060000298;6.42422989005229
Anthy-sur-Léman, Contamines;46.355658000973;6.42109476971027
Anthy-sur-Léman, Crois d'Anthy;46.3525145153886;6.43976176131688
Anthy-sur-Léman, Darty;46.3505923739801;6.43481204410069
Anthy-sur-Léman, Foiset;46.3592166796317;6.44104635217335
Anthy-sur-Léman, Fruitiere;46.3560485989778;6.4289101126832
Anthy-sur-Léman, Lavoret;46.3543683877353;6.41372858437947
Anthy-sur-Léman, Les Fosseaux;46.3561601978949;6.43267405372419
Anthy-sur-Léman, Les Huches;46.3493460461676;6.40765597305798
Anthy-sur-Léman, Les Sapins;46.3454580648726;6.41179720651834
Anthy-sur-Léman, Mc Donald's;46.3492096304526;6.43191946888542
Anthy-sur-Léman, Peylevet;46.3442364251392;6.41406994418748
Anthy-sur-Léman, Picard Anthy;46.3520866897625;6.4389622607139
Anthy-sur-Léman, Port Sechex;46.3505489700066;6.40674867462089
Anthy-sur-Léman, Route Du Clos;46.3519192788232;6.40974006451742
Anthy-sur-Léman, Savoyances;46.3570839801794;6.43702189969993
Anthy-sur-Léman, Sechex;46.347126148135;6.40982091289301
Anthy-sur-Léman, Sport 2000;46.3480872882383;6.43393169512213
Anthy-sur-Léman, village;46.3556890009167;6.42692483590502
Anthy/Léman, Ctre.Comm.Margen.;46.3466424712394;6.434623397891
Antibes;43.5856768351865;7.11946303798769
Antronapiana;46.060121674738;8.11361957990831
Anwil, Ausserdorf;47.4517594877825;7.94370324389345
Anwil, Dorf;47.4494329011826;7.93949014521034
Anwil, Talweiher;47.4518809777277;7.92864747972951
Anzeling;49.2625990991037;6.4595336807231
Anzeling Carrefour;49.2680156076842;6.48037459531757
Anzère (télécabine);46.295255346882;7.39488650413707
Anzère, Barrage de Tseuzier;46.3463262186475;7.43503221418996
Anzère, Bisse d'Ayent;46.2929960104863;7.40283659440264
Anzère, centre;46.2958077528633;7.39642262327313
Anzère, Chamossaire;46.2954229313079;7.40603459681455
Anzère, Les Rousses;46.3326449925916;7.43748461491595
Anzère, Pra Combère;46.3226640970796;7.43476271960469
Anzère, Pralan;46.2991406909335;7.40560340547811
Anzère, télécabine;46.294733969833;7.39466192531601
Anzère, Utignou;46.2946967284253;7.41053515638861
Anzère, village sud;46.2965711811709;7.399908086576
Anzola;45.9898698225697;8.34571729989858
Anzonico, Bv. Calonico;46.4377461301325;8.85245695174094
Anzonico, Paese;46.4312950694006;8.862374352479
Aosta, Autostazione;45.7351567183534;7.32432383855966
Aouste-sur-Sye;44.7136140775994;5.05685029698658
Apach Église;49.4598406695759;6.37423864448408
Appenweier;48.5414606157058;7.97318595152235
Appenzell;47.328533836533;9.40952920895952
Appenzell, Adlerplatz;47.3309327390842;9.4109215976501
Appenzell, Alpsteinstrasse;47.3301473235962;9.42628278901068
Appenzell, Bahnhof;47.3288991586753;9.40944836058394
Appenzell, Bleichenwald;47.3367651491184;9.4252497264338
Appenzell, Bleuer;47.3322052091535;9.44446469036379
Appenzell, Hallenbad;47.3340499318916;9.41180194662866
Appenzell, Hirschberg Station;47.3315172267508;9.4228781740834
Appenzell, Kreuzhof;47.3322478272376;9.41342789729314
Appenzell, Kreuzstrasse;47.3337637910029;9.46245794550721
Appenzell, Lädeli;47.3348109373482;9.45471446775702
Appenzell, Lank;47.34856193802;9.39761754829044
Appenzell, Meistersrüte;47.3487080117605;9.43259794545892
Appenzell, Mettlenbrücke;47.3358458871697;9.40577425107138
Appenzell, Moren;47.331084950037;9.43770935942627
Appenzell, Schönenbüel;47.3332219454978;9.42799857120359
Appenzell, Spital;47.3334654722554;9.41637437142546
Appenzell, Steig;47.3413673060562;9.39975553866694
Appenzell, Unterschlatt;47.3517998110954;9.38849964815535
Appenzell, Zentrale;47.333830760286;9.43858072525199
Appenzell, Ziel;47.3345126245161;9.40689714517668
Apples;46.5508805769967;6.42358310304763
Apples, Fondation Baud;46.5535493232999;6.43032945083231
Apples, gare;46.5509547106105;6.42399632807838
Apples, Hôtel de Commune;46.5522396771604;6.42783213434211
Apples, La Mottaz;46.5455303338702;6.43308727875494
Aproz, bif. Bieudron;46.1950288404764;7.28424101057667
Aproz, rte de Coor;46.2017440758132;7.3085853547797
Aproz, village;46.2067115782388;7.31589764119345
Aquila, Bivio Ponto-Aquilesco;46.5078907503287;8.94530681952046
Aquila, Cresedo;46.5056402020676;8.9472202310759
Aquila, Paese;46.5027836027841;8.95017568836106
Aran, Pra Forny;46.505324870556;6.71135840435538
Aranno, Cappella di Aranno;46.0216105387791;8.87419618161966
Aranno, Flora;46.0157591872314;8.873549394615
Aranno, Lusciè;46.0278604456458;8.87697197584797
Aranno, Maestà;46.0151166236916;8.87717858836335
Aranno, Paese;46.0180112199189;8.87054902156562
Aranno, Prumé;46.0157217565504;8.88090659679296
Arbaz, Barra;46.2800899372241;7.38989187115667
Arbaz, bif. Blignou;46.2691928332086;7.38704421170562
Arbaz, café du Lac;46.2808349592079;7.38228314069912
Arbaz, Onna;46.2711178353631;7.38319942228905
Arbaz, Planèje;46.2755885472438;7.37910310459289
Arbaz, poste;46.2727012541975;7.38307365814925
Arbaz, Pré-du-Loup;46.2838397783785;7.38522961483144
Arbaz, Prozerbou;46.2763522573833;7.38518469906723
Arbedo, Casa Comunale;46.2129964725993;9.04429218069136
Arbedo, Chiesa;46.2115232236168;9.04051925649754
Arbedo, Molinazzo;46.212921878664;9.03966585697751
Arbedo, Polveriera;46.2197219426866;9.04872985819553
Arbedo, Polveriera Nord;46.2206169523849;9.05128107360279
Arbedo, Ponte Pacciaredo;46.2146623774238;9.04257639849846
Arbedo, Rotondello;46.2164711944668;9.04482218670907
Arbedo, Via Orbello;46.2184850649942;9.04690627816852
Arbois;46.9124845291591;5.76433646539907
Arboldswil, Dorf;47.4156767111268;7.71715711235981
Arboldswil, Mühletal;47.4148500054054;7.7251970341538
Arboldswil, Renggelts;47.4102238610947;7.72517008469527
Arbon;47.510588495693;9.43336151345053
Arbon (See);47.5126454077243;9.44032345690342
Arbon Seemoosriet;47.5211937740891;9.4250161644599
Arbon, Alpenblick;47.5083130566108;9.4162126746743
Arbon, Alter Werkhof;47.5116139279923;9.42530362535086
Arbon, Bahnhof;47.5110799775792;9.43197810791279
Arbon, Bahnhof Ost;47.5110314363632;9.43362202488296
Arbon, Bergli;47.5159399395415;9.42448615844219
Arbon, Bündnerhof;47.5106491727182;9.42860044244403
Arbon, Friedenstrasse;47.5151633466217;9.43223861934522
Arbon, Frohmattstrasse;47.5191675307096;9.42382140513185
Arbon, Kupferwiese;47.4990403808935;9.42187206096504
Arbon, Landquartstrasse;47.5059464953165;9.42700144123808
Arbon, Romanshornerstrasse;47.5190461962874;9.42515989490538
Arbon, Scheidweg;47.5207691187847;9.41484723544225
Arbon, Schloss;47.5157943292446;9.43635290334706
Arbon, Seemoosholz;47.5197984651817;9.41976102004707
Arbon, Stahelplatz;47.5169106645288;9.43133132090814
Arbon, Wildpark;47.5098239591661;9.4231746181272
Arc-et-Senans;47.0303171080476;5.77664338479322
Arcegno, Altisio;46.1613719114828;8.74621320307333
Arcegno, Chiesa;46.1623052032253;8.74258400932498
Arcegno, Cruglio;46.1600777207353;8.74237739680961
Arch, Aarestrasse;47.1672842942224;7.42341699756468
Arch, Arche;47.1672415431917;7.42771094462337
Arch, Bahnhofstrasse;47.1629235118525;7.42057832126647
Archamps, Centre de convention;46.1360612274338;6.12329426983036
Archamps, Communauté-Commun;46.1378788563979;6.11760793408109
Archamps, Pont de Combe;46.1377605878451;6.12788466093285
Arches;48.1198870937811;6.52842547987182
Arcisate;45.8581016815948;8.86259893130006
Arconciel, Pelleret;46.7398446528693;7.12204120285347
Arconciel, Rialet;46.7511709871812;7.13534525221313
Arconciel, Sur-le-Moulin;46.7388042343587;7.12931755665585
Arconciel, village;46.7454342500475;7.12395461440891
Arcy-sur-Cure;47.600846764182;3.76688751511706
Ardez;46.7735396587006;10.2010527722131
Ardez, Bahnhof;46.7734719820951;10.2012324352699
Ardez, Bröl;46.7752130895324;10.2038106001357
Ardon;46.2085952570613;7.27094594436985
Ardon, Arnica;46.2076938346613;7.25367134145382
Ardon, centre;46.2116040357668;7.25802817058241
Arenenberg, Schloss;47.6716808459113;9.05998574870712
Areuse Les Isles Littorail;46.9542211704853;6.84857606402374
Areuse Littorail;46.9544970982006;6.85305865729212
Areuse Littorail, gare;46.9544235176156;6.85311255620917
Areuse, giratoire;46.9555210841735;6.85517868136293
Areuse, Les Isles;46.9548159462329;6.84750706883549
Arezen, alte Post;46.7840038994883;9.34181420283316
Arezen, Fatscha;46.7800054584896;9.33877789717242
Argenbühl, Albris;47.7033259639565;9.93553772364893
Argenbühl, Alperts;47.7085307836562;9.91954771158938
Argenbühl, Artisberg;47.7206310381948;9.87897979335289
Argenbühl, Aufreute;47.7082164538911;9.93216904133301
Argenbühl, Baldenhofen;47.7411624011486;9.95958562380816
Argenbühl, Buchweiher;47.7170592773364;9.95015331332359
Argenbühl, Christazhofen;47.7229999898549;9.9651192459591
Argenbühl, Davids;47.7084945149339;9.95478862019029
Argenbühl, Eggen;47.7203469984931;9.8899661892792
Argenbühl, Eisenharz Ort;47.687986556899;9.95906460094329
Argenbühl, Enkenhofen;47.7419839705812;9.98761306067659
Argenbühl, Gottrazhofen;47.7327647348126;9.97697700771113
Argenbühl, Haizen;47.6989489188836;9.94072998599186
Argenbühl, Kreuzbühl;47.7044383035861;9.98272622553029
Argenbühl, Matzen;47.7073339024943;9.96081631574757
Argenbühl, Mittelried;47.7139405853986;9.90892064177676
Argenbühl, Reute;47.7267224105318;9.91947584636663
Argenbühl, Ried;47.7054055361441;9.99495229654886
Argenbühl, Sägenweiher;47.7267767945765;9.9327170136564
Argenbühl, Sandraz;47.6954724126921;9.9449700341335
Argenbühl, Seehalde;47.7454694555243;9.99820419787783
Argenbühl, Siggen;47.7097336819792;9.94665886686788
Argenbühl, Siggen Kirche;47.7113959329647;9.94602106301606
Argenbühl, Siggener Höhe;47.7068563513296;9.92595269956604
Argenbühl, Steig;47.7275139949144;9.9747491858062
Argentière (Haute-Savoie);45.9821799271146;6.92784340470548
Argentine;45.4912049671274;6.31486898734835
Argentine-Gemelly-ou-Stade;45.4931319258638;6.31383592477147
Argentine-La-Combe;45.5020731591029;6.31865089469502
Argnou (Ayent), centre;46.2630075300122;7.39964757514357
Argnou (Ayent), d'en Haut;46.2635105777287;7.39662025263566
Argnou (Ayent), Les Frisses;46.2621628963046;7.40112081220973
Argonay, Champ Farcon;45.9404223872526;6.13033706165884
Argonay, Clinique Argonay;45.9490175079466;6.15039644195602
Argonay, Gerbier;45.9433771103012;6.14180854783864
Argonay, Granges;45.9402974483472;6.13524186311081
Argonay, Les Convers;45.9451573642319;6.14347043111449
Argonay, Lycee Lachenal;45.9384170838189;6.13359794614064
Argonay, Magie;45.9466252499075;6.15120492571184
Argonay, Mairie;45.9451761034429;6.14002090042299
Argonay, Salle Polyvalente;45.9399038889552;6.14134142389083
Argonay, Sous Clinique;45.9482992167704;6.15186967902218
Argonay, Stade;45.9401162864344;6.14411721811915
Argonay, Symphorine Baratte;45.9434520695143;6.14698284387589
Arisdorf, Hofacker;47.5064926343165;7.76482172134183
Arisdorf, Kreuz;47.5023296980833;7.76476782242477
Arisdorf, Olsbergerstrasse;47.5130094545539;7.76519003060837
Arisdorf, Schulhaus;47.5098603659199;7.76550444095785
Arisdorf, Weieren;47.4976748289063;7.7666992002859
Aristau, Althäusern;47.2944747205692;8.3599016982368
Aristau, Birri;47.2791921502154;8.36222833482299
Aristau, Dorf;47.2862733796988;8.36204867176614
Arlanc Place de l'église;45.417389400681;3.72208853189179
Arlen, Gems/Arlenerstrasse;47.7247343325852;8.84517161478571
Arlen, Lindenstrasse;47.7269701596091;8.84628552573818
Arles;43.6850070841129;4.63243225779239
Arlesheim, Aliothstrasse;47.5092899905418;7.61320406766703
Arlesheim, Altenmatteweg;47.4934929843693;7.60980843589258
Arlesheim, Baselstrasse;47.5017106910336;7.61898023494472
Arlesheim, Birsweg;47.4974806141835;7.60881130592707
Arlesheim, Brown Boveri;47.5078458209115;7.61726445275181
Arlesheim, Dom;47.4922061959714;7.6184053131628
Arlesheim, Dorf;47.4944580549759;7.61887243711061
Arlesheim, Im Lee;47.4974745449618;7.61932159475273
Arlesheim, Obesunne;47.4901727632345;7.61688716033243
Arlesheim, Schorenweg;47.5056066726265;7.61053607127282
Arlesheim, Stollenrain;47.4930316864938;7.61137150448717
Arnach, Ortsmitte;47.8549046882956;9.89586812069669
Arnach, Paradies;47.8642408926717;9.9008447873714
Arnas Avé Maria;46.0211115137599;4.72027850943866
Arnegg;47.4420029290589;9.25202759017292
Arnegg, Bahnhof;47.4425801108494;9.25235996682809
Arnegg, Geretschwilerstrasse;47.4389285698851;9.25430032784206
Arnegg, Restaurant Ilge;47.442276331749;9.25533339041894
Arnegg, Weideggstrasse;47.4431937392817;9.25624068885603
Arnex;46.6980767102019;6.51890333785882
Arnex, gare;46.6980951932903;6.51925368081968
Arnex, poste;46.6948420722897;6.51907401776283
Arnex-sur-Nyon;46.3747258439151;6.19336286200143
Arni AG, Dorf;47.3183951391194;8.4197115298618
Arni AG, Stockacker;47.3200332946963;8.42388869593354
Arni BE, Dorf;46.9350131060054;7.66495601119236
Arni BE, Hämlismatt;46.9407173694639;7.65333181141423
Arni BE, Matte;46.9345898622429;7.67407391132744
Arni BE, Schwendelweg;46.937534097373;7.67976923022955
Arni BE, Tanne;46.9471262737959;7.6481395490713
Arni BE, Walke;46.9308848030255;7.64103387517292
Arni UR;46.7780307342443;8.65138704166848
Arnisäge BE, Post;46.9339519232945;7.65030448890633
Arnisee;46.7692020315783;8.64234100675613
Arnorengo;46.5095229578047;8.71502369640436
Arnouva (télécabine amont);46.317657455632;7.47745964506483
Arnouva (télésiège aval);46.318488825585;7.47876220222699
Arogno, Cà del Ferée;45.9601716874041;8.99167785449316
Arogno, Cà Nova;45.9503916042606;8.98730305905889
Arogno, La Cassina;45.9466439886223;8.98735695797594
Arogno, Nebbia;45.9527462264666;8.98854273415115
Arogno, Paese;45.9585230587171;8.9877073009368
Arogno, S. Michele;45.9548384460802;8.98962969564508
Arogno, Sasso Grosso;45.9575988060254;8.99301634426669
Arolla, La Gouille;46.0535699424844;7.49031453678237
Arolla, La Monta;46.0308416892084;7.48483481354848
Arolla, Magine;46.0218101475256;7.48159189537236
Arolla, Mt-Collon;46.0235130303448;7.48198715409742
Arolla, poste;46.0257585099194;7.48092714206202
Arolla, Pramousse;46.0403768466516;7.4877184056109
Arolla, Satarma;46.0480025410598;7.48844604099114
Arosa;46.7832903533249;9.67932922142953
Arosa (Mittelstation)Weisshorn;46.7864028215495;9.66315056316029
Arosa (Talstation) Hörnli;46.7726598561944;9.65967408301026
Arosa (Talstation) Weisshorn;46.7835917662201;9.6786015860493
Arosa, Alteinplatz;46.7825891004673;9.68492572565038
Arosa, Bahnhof;46.78396699216;9.67954481709775
Arosa, Bellevue;46.7763573909723;9.67008555715466
Arosa, Brüggli/Skischule;46.7758221562289;9.66525262092542
Arosa, Gada;46.7745609498774;9.66176715762255
Arosa, Gollrad;46.7887339792838;9.68182653791973
Arosa, Hörnli;46.7726660087094;9.65872186880896
Arosa, Kulm;46.7746839956998;9.66477651382477
Arosa, Langlauf/Golf;46.7916800737868;9.68221281349196
Arosa, Maran;46.7928793771365;9.6815660264873
Arosa, Obersee;46.7863782177632;9.68033533454789
Arosa, Ochsenbühl;46.7829704847334;9.68272485320398
Arosa, Prätschli;46.7909358772458;9.67525985319191
Arosa, Rathaus;46.777452452376;9.67524188688622
Arosa, Sandhubel;46.782576797704;9.68570725994767
Arosa, Seeboden;46.7831796297968;9.68565336103062
Arosa, Seehalde;46.7871532316275;9.68486284358048
Arosa, Surlej;46.7863782177632;9.68270688689829
Arosa, Untersee;46.7790088777357;9.68409029243603
Arosa, Waldwiese/Seilpark;46.7853386975203;9.68544674851524
Arosa, Weisshornbahn/Skischule;46.782220016347;9.67994007582282
Arosa, Wetterweide;46.7802330700248;9.68580607462894
Arosa, Zentrum;46.7791134580638;9.67778411914063
Arosio, Bassa;46.0465498120897;8.90142411788511
Arosio, Bivio per Arosio;46.0480025410598;8.8976332273856
Arosio, Cappella di Toma;46.0460323071333;8.90524195784315
Arosio, Cimaronco;46.0409879386362;8.91227576651878
Arosio, Paese;46.0482831066306;8.89992393136042
Arraincourt;48.9708635944657;6.53218043775996
Arras;50.2868889846693;2.78183090702584
Arrest Usine Melius;45.3948171247867;3.32597640730414
Arrissoules, village;46.7986787080128;6.77985494477903
Ars-sur-Moselle;49.0747592090017;6.07895342740005
Arsonval;48.2650109476949;4.65158433965248
Arth am See (Schiff);47.0647112590512;8.52232608478106
Arth, Am See;47.0643257561568;8.52268541089476
Arth, Dorf;47.0619514863998;8.5235208441091
Arth, Feld;47.0590508174806;8.53063550116032
Arth, Klostermatt;47.0664857602328;8.52473356974283
Arth-Goldau;47.0490441345618;8.5494462232124
Arth-Goldau RB;47.0488849917153;8.54777535678371
Arth-Goldau, Bahnhof;47.0494236271259;8.5488533351248
Artisans;46.3147537659535;6.93936878980234
Artore, Paese;46.1901660004166;9.03243441893934
Arvant;45.3653820515041;3.31067809801346
Arvenbüel, Arven;47.1472669421687;9.17382026152659
Arvenbüel, Obern;47.1476701735012;9.16657984033558
Arveyes;46.2912517886918;7.06268951202343
Arveyes, gare;46.2912207522139;7.06288714138596
Arveyes, Regina;46.2911462645949;7.05889862152392
Arvigo (Funivia);46.3000033736954;9.11432484025107
Arvigo, Al Canton;46.3027775203686;9.11418110980559
Arvigo, Filovia;46.2997861526976;9.11410924458285
Arvigo, Paese;46.3006426190607;9.11499857671425
Arzier;46.4586418265393;6.21165256118865
Arzo, Bagno Spiaggia;45.8787433311844;8.94917855839555
Arzo, Coop;45.8737837799218;8.94618716849901
Arzo, Posta;45.8752785714792;8.94363595309176
Arzo, San Grato;45.8762667379642;8.94602547174785
Arzo, Scuole;45.875015891356;8.93793165103681
Arzo, Via Rossi;45.874352931238;8.93968336584108
Arzviller Fontaines;48.7186362220061;7.16807087801816
Ascharina, Alpbachbrücke;46.9597087989137;9.80447352367765
Ascharina, Alpstrasse;46.9602912515745;9.81008799420417
Ascharina, alte Post;46.9526820809076;9.80197620718745
Ascharina, Bartlischhus;46.9532339507866;9.80638693523309
Ascharina, Bellawiese;46.9624983830645;9.81056410130482
Ascharina, Gürgetsch;46.9666610304697;9.81333989553314
Ascharina, Tola;46.9575996541243;9.80634201946887
Ascona NLM;46.153792996324;8.7687249840965
Ascona, Aeroporto;46.1535378586876;8.78156190950835
Ascona, Albergo Ascona;46.158901722937;8.76988381081317
Ascona, Autosilo;46.1564874264708;8.77107857014122
Ascona, Bagno pubblico;46.149735545462;8.77893882887836
Ascona, Baraggie;46.158435050178;8.77166247507598
Ascona, Borgo;46.1572901295763;8.77000957495297
Ascona, Canneto;46.1571905701373;8.76655106110863
Ascona, Casa Angolo;46.1574643581611;8.76456578433045
Ascona, Casa Cristoforo;46.1557780511895;8.76145761344696
Ascona, Case Saleggi;46.1538178877374;8.7865655256416
Ascona, Centro;46.1555353680729;8.77106958698838
Ascona, Fiume Maggia;46.1617950057011;8.78152597689699
Ascona, Lido;46.1491381041205;8.78072647629401
Ascona, Manor Delta;46.1630704906405;8.7743125051645
Ascona, Mirador;46.1503454268093;8.77757338964631
Ascona, Monte Verità;46.1575888068126;8.76236491188405
Ascona, Moscia;46.1514593763155;8.7480906820174
Ascona, Palestre;46.1576634758683;8.77804051359412
Ascona, Parco dei Poeti;46.1569167807512;8.773486055103
Ascona, San Materno;46.1602830511068;8.77424063994176
Ascona, Scuole;46.1543157136411;8.77402504427354
Ascona, Solaria;46.1580990433408;8.76859023680387
Ascona, Sonnenhof;46.1514407069565;8.79043726451669
Ascona, Terreni alla Maggia;46.1526293101818;8.78930538725854
Ascona, Via Badiola;46.152218591551;8.77767220432758
Ascona, Via Medere;46.1598661674299;8.77528268567149
Ascona, Via Pancaldi Mola;46.1543530504023;8.77799559782991
Ascona, Via Pascolo;46.1595488359467;8.77801356413559
Ascona, Via Patrizia;46.1512664593001;8.78128343177024
Asp AG, Abzw.;47.4460916699054;8.05375584936625
Aspach-le-Bas Rest. Malakoff;47.7778787213013;7.13645018001275
Aspach-le-Haut Ch. de la Gare;47.7750534513454;7.13008112464746
Aspach-le-Haut Crois. D103-D34;47.7765747696284;7.13380014992423
Asperg;48.9073604889044;9.14779606774202
Aspres-sur-Buech;44.5201075497437;5.75485025599745
Assens;46.6131479861526;6.62052974596541
Assens, gare;46.6132960830907;6.62082619000921
Astano, La Bolla;46.0114669706975;8.82674716830586
Astano, Paese;46.0119847993738;8.81757536925372
Asuel, école;47.4020830489682;7.21078576978399
Asuel, La Malcôte;47.3999731634806;7.19475084196022
Asuel, Maison communale;47.3985138272571;7.21139662417727
Atdorf, Hotzenhof;47.6488527611006;7.95573168554948
Athenaz, école;46.1552677931397;6.00409681476395
Athenaz, Passeiry;46.1567301053887;6.00386325279004
Athenaz, village;46.1545770704378;6.00699837313206
Attalens, Corcelles;46.512552303893;6.84907013743007
Attalens, Fin du Clos;46.5156865720088;6.84732740577864
Attalens, La Fin;46.5062708596034;6.85048049242633
Attalens, Perrey;46.4935202636195;6.85241187028746
Attalens, village;46.510159752733;6.84861199663511
Attelwil, alte Post;47.2609301498905;8.04470981445391
Attelwil, Schule;47.2580098399457;8.04432353888168
Attenschwiller, Rue de Paris;47.5694546697364;7.4619816727173
Attenschwiller, Vordematt;47.5670605606803;7.46874598680766
Attenschwiller, Wilson;47.5666059706494;7.46417356201085
Attinghausen (Luftseilbahn);46.8613306257664;8.6288303448811
Attinghausen, Galliried;46.8630566062888;8.6275188045661
Attinghausen, Plätzli;46.8664346993901;8.62769846762295
Attinghausen, Post;46.8632347292338;8.63178580216626
Attinghausen, Seilbahn;46.8613859071415;8.62899204163226
Attiswil;47.246400167687;7.61387780413021
Attiswil, Post;47.2471990239357;7.61456950689908
Attlisberg;47.7215737971683;8.16716815400213
Attlisberg, Kohlmiesfeld;47.7229758174228;8.17068954991636
Atzenbach;47.7146175266411;7.8723500608659
Atzenbach, Brücke;47.7133482545975;7.87138886351176
Atzmännig (Bergstation);47.2793506046155;9.01060535753219
Atzmännig Schutt (Talstation);47.2853105831752;8.99710367881
Atzmännig, Atzmännigstrasse;47.2873397477997;8.98811154281471
Atzmännig, Schutt;47.2845427708562;8.99601671731606
Au SG;47.4361153130833;9.64125861968325
Au SG, Gemeindehaus;47.433927795642;9.63498837899922
Au SG, Monstein;47.4374520845309;9.63911164615391
Au SG, Oberdorf;47.4304518864524;9.63470091810826
Au SG, Zinggen;47.4246784530687;9.63693772316603
Au ZH;47.2468209408006;8.64372441229387
Au ZH, Alte Landstrasse;47.2471258467653;8.63504668664807
Au ZH, Appital;47.2405455863042;8.64486527270486
Au ZH, Aubrücke;47.2458147386643;8.64995872036653
Au ZH, Austrasse;47.2451927132384;8.64824293817362
Au ZH, Bahnhof;47.2465160330807;8.64430831722863
Au ZH, Grundstein;47.2421739567024;8.65484555551282
Au ZH, Gwad;47.2395087700849;8.65756745082408
Au ZH, Moosacher;47.2404053123555;8.63925978533117
Au ZH, Naglikonerweg;47.2480161621375;8.63544194537313
Au ZH, Schützenhaus;47.2416738632536;8.64533239665267
Au ZH, Seeguet;47.2491564757213;8.63343870228927
Au ZH, Stoffelstrasse;47.2414787035539;8.65102771555478
Au ZH, Strandbad;47.2403443235663;8.6589059405976
Au ZH, Unter Ort;47.2482417876289;8.63204631359869
Au-delà du Pont;46.2495228892945;6.94882804974543
Aubecourt;48.9957541975814;6.42662839186122
Aubenas Gare Routière;44.6004863665228;4.40337084346287
Aubenas Place de la Paix;44.6121966013778;4.37881988674446
Aubiat;45.9840088708214;3.1606145297804
Aubonne, Bougy-St-Martin;46.4934893419545;6.38509927627059
Aubonne, Curzilles;46.490032188941;6.37878411982236
Aubonne, gare;46.494021192144;6.3928247877151
Aubonne, hôpital;46.4928276141084;6.38953695377476
Aubonne, La Levette;46.4850841815833;6.40034368664423
Aubonne, La Praz;46.4888261536314;6.39934655667871
Aubonne, Le Bornalet;46.4915845334886;6.39589702598721
Aubonne, Pré-Baulan;46.4957156569003;6.36904638214114
Aubonne, Roveray;46.4812800949264;6.40110725463583
Aubonne, Sermaret;46.4996114887457;6.3906239152687
Auboué;49.2161768295928;5.9715149194044
Aubrais - Orléans;47.9267242131683;1.90628791523687
Aubrives;50.1038771198563;4.76085541082799
Audun-le-Roman;49.3665226155455;5.89092705525481
Audun-le-Roman Hôtel de Ville;49.3643756228895;5.90493179053619
Audun-le-Roman, Jean Jaurès;49.3689853990213;5.90106005166109
Auenstein, Eggen;47.4177069480417;8.13561033806661
Auenstein, Fahr;47.4154031702293;8.15115119248405
Auenstein, Gemeindehaus;47.4162784960996;8.13670628271339
Auenstein, Hausacher;47.4174698884865;8.14107209499482
Auenstein, Kirche;47.4161630025472;8.14123379174599
Auenstein, Obermatt;47.4197006374518;8.13921258235643
Auenstein, Rütigasse;47.4165337967375;8.13256504925303
Auenstein, Steinbr. Jakobsberg;47.4182540044805;8.15669379778783
Auenstein, Wiweg;47.4160596659961;8.12907958595016
Auggen;47.7899507947126;7.58678461515739
Auggen, Hochhaus;47.7904758662764;7.59472572227012
Auggen, Kronenplatz;47.7876452452924;7.59336028303807
Auggen, Lettenbuck;47.7975306236755;7.60124749123373
Auggen, Rathaus;47.7872046443654;7.59515691360655
Auggen, Siedlung Richtberg;47.8108469601605;7.58232897134754
Auggen, WG;47.7951047159225;7.59701642624494
Augio, Paese;46.3641947209831;9.12658684388101
Augio, Tarco;46.3679883906412;9.12617361885026
Augst BL;47.5346899552539;7.71290808106533
Augst BL, Schwarzacker;47.531287425304;7.72706552994503
Aulendorf;47.9530525382949;9.64404339706441
Aulendorf, Abz. Galgenbühlstr.;47.9511693800016;9.63078426346896
Aulendorf, Abzw. Bühlstrasse;47.9470298004373;9.6296703525165
Aulendorf, Alte Kiesgrube;47.9426732569134;9.64557053304762
Aulendorf, Alter Rathausplatz;47.9528239157085;9.63638975084264
Aulendorf, Atzenberg;47.9668642787768;9.62599624300393
Aulendorf, Auf der Steige;47.9436360605694;9.6374587460309
Aulendorf, Bahnhof;47.9530525382949;9.64404339706441
Aulendorf, Bändelstockweg;47.9595197318905;9.63599449211758
Aulendorf, Booser Strasse;47.9453149065455;9.64420509381557
Aulendorf, Conches Strasse;47.9480647264132;9.62604115876815
Aulendorf, Die Zieglerschen;47.9588399626361;9.63885113472147
Aulendorf, Dobelmühle;47.9312205358652;9.6157464656107
Aulendorf, Ebisweilerstrasse;47.958190263308;9.63324564734779
Aulendorf, Friedhof;47.9490695475033;9.63551838501693
Aulendorf, Friedhof Haupteing.;47.9480406586026;9.63244614674481
Aulendorf, Grundschule;47.9508384665034;9.63905774723685
Aulendorf, Hasengärtlestrasse;47.9468312366888;9.63956978694887
Aulendorf, Haslach;47.964698918963;9.68019160410241
Aulendorf, Hauptstrasse;47.9503992507695;9.63472786756679
Aulendorf, Hexeneck;47.9531608328513;9.63894994940274
Aulendorf, Sandweg;47.9473487042552;9.63692874001319
Aulendorf, Schillerstrasse;47.9487326036861;9.63802468465997
Aulendorf, Schlossplatz;47.9543701066466;9.63820434771682
Aulendorf, Schönstatt;47.9539188883909;9.62825999752023
Aulendorf, Schwaben Therme;47.9574021911206;9.64095319248661
Aulendorf, Tannhausen;47.9528479812915;9.65920695906246
Aulendorf, Wohnpark St.Vinzenz;47.9537925465733;9.63500634530491
Auliens, halte;46.2837590725794;7.02603824842625
Aulnat Aéroport;45.7920532629814;3.16143199668907
Aulnoye-Aymeries;50.1971959342491;3.84354075832165
Aumont, école;46.7972335461675;6.84966302551767
Aumont, village;46.7977193708633;6.85127100987647
Aumont-Aubrac;44.7181654900723;3.28354897642927
Auray;47.680239560379;-2.99947473409261
Aurec;45.3710809691198;4.19857292496079
Auressio, Paese;46.2011720692245;8.68349282992738
Auressio, Ri del Vò;46.207631667054;8.67975583834492
Auressio, Ronchetto;46.1992010878673;8.68891865424421
Aurigeno-Moghegno;46.2399493287992;8.71437690939971
Aurillac;44.9209611066718;2.43590765736894
Auslikon, Ober Balm;47.3418481961318;8.81702739693033
Auslikon, Schulhausstrasse;47.3436377991955;8.80723576033207
Ausnang, Nord;47.8271091352883;10.0993544988838
Ausnang, Schule;47.8247207966631;10.1006929886573
Ausserberg;46.3123463166635;7.84416991039915
Ausserberg, Abzw. St. German;46.3092561878936;7.84010952531436
Ausserberg, Bahnhof;46.3124704145765;7.84237327983066
Ausserberg, Brandenhütten;46.3115210583845;7.85294645072622
Ausserberg, Chronufluo;46.3086480697198;7.84947895372903
Ausserberg, Distern;46.3130846951021;7.84917352653239
Ausserberg, Dorf;46.3145614220936;7.85101507286509
Ausserberg, Giblätt;46.3092251616197;7.84601145673185
Ausserberg, Hohtenn;46.310912965374;7.84755655902075
Ausserberg, Stapfa;46.3125696927043;7.84627196816428
Ausserbinn, Dorfplatz;46.3817289390926;8.14846522978415
Ausserbinn, Hubel;46.3767401004708;8.15089068105161
Ausserbinn, Wengi;46.3833959152354;8.14188956190348
Ausseredensbach, Abzweigung;47.753236958339;9.73857311442546
Ausserortschwaben;46.9877267814876;7.4088822562656
Ausserpraden, Hedwig;46.824936992976;9.57699314424839
Ausserpraden, Krone;46.8253180771427;9.5743071815485
Autavaux, bif.;46.8632470135531;6.88237068501702
Autigny, Café de l'Ecu;46.7362492753216;7.02227430738527
Autigny, En Verdau;46.7394321816604;7.02443026406745
Autigny, Le Bas;46.7326475009538;7.0267479175008
Autreville;48.4866004796247;5.85175152570891
Autrey;48.2954398849273;6.69138885558662
Autun;46.9550121594625;4.292922979265
Auvernier;46.9796434667354;6.87770842869179
Auvernier (bateau);46.9737962438722;6.88161610017825
Auvernier Littorail;46.9742375660179;6.87889420486699
Auvernier Littorail, gare;46.9746850139198;6.87809470426401
Auvernier, gare;46.9795883072431;6.8790020027011
Auvernier, Pacotte;46.9756963549719;6.87286650930971
Auw, Altersheim;47.2084985919711;8.37221760078379
Auw, Mitteldorf;47.2113850183267;8.3642405610597
Auw, Oberdorf;47.2095665270066;8.36093476081368
Auw, Unterdorf;47.2101340494472;8.36875908693945
Auxerre-Saint-Gervais;47.7976332093182;3.58536494562976
Auxon Église;48.0922398501531;3.9238681110388
Auxon Route Nationale;48.1063862515012;3.91858601716744
Auxonne;47.1925929693935;5.37708172951408
av. Margencel;46.3181600016658;6.96495280909762
Avallon;47.4958601070863;3.91259425422153
Avegno di fuori;46.200966891497;8.7450004774396
Avegno, Grotti;46.2109513188489;8.74518014049645
Avegno, Paese;46.2056982193454;8.74282655445173
Aven, Courtenaz;46.2689754900081;7.24337664829638
Aven, La Croix;46.2358547393864;7.27281444016108
Aven, Lac Bleu;46.2829644245163;7.23091701530391
Aven, Le Brésil;46.2603990604269;7.24433784565052
Aven, Le Creux-d'Ortcheu;46.2360100783996;7.27470988541083
Aven, Maduc;46.2484233504669;7.2535186278555
Aven, Motélon;46.2753339748321;7.23503129930575
Aven, pl. St-Bernard;46.2311881504206;7.25911513207635
Aven, village;46.2363704632168;7.2712962873307
Avenay;49.0647837640776;4.04369438680418
Avenches;46.8845990523819;7.04092333268618
Avenches, Bibracte;46.8767273595286;7.03896500536653
Avenches, Collège Sous-Ville;46.8793247774254;7.03724024002078
Avenches, EMS Marc-Aurèle;46.8815475269407;7.04413930140378
Avenches, Faubourg;46.878145823183;7.04229775507108
Avenches, gare;46.8844148605975;7.04095926529755
Avenches, Haras Fédéral;46.8862321918729;7.02002851917466
Avenches, Hôtel de Ville;46.8799081045803;7.04049214134975
Avenches, Joli-Val;46.8761562791587;7.04245945182224
Avenches, L'Eau-Noire;46.9021250766441;7.04446269490611
Avenches, Le Paon;46.8766291095752;7.03352121474401
Avenches, Milavy;46.8771879037869;7.0315089885073
Avenches, Montmezard;46.8788949533584;7.038938055908
Avenches, plage;46.9009957262085;7.04880155772901
Avenches, Pré-Vert;46.8858945167322;7.04612457818196
Avenches, route du Lac;46.894918921502;7.0525026167001
Avers, Abzw. Valle di Lei;46.4956909205683;9.47323772891814
Avers, Am Bach;46.4582890925051;9.53765591795132
Avers, Campsut;46.4869273669269;9.47807066514738
Avers, Cresta;46.4730091546771;9.51189223559919
Avers, Cröt;46.4780386795152;9.48547278308956
Avers, Juf;46.4453477434946;9.5799575846864
Avers, Juppa;46.4521622947821;9.54817518992983
Avers, Lezibrücke;46.4774695561181;9.49360253641197
Avers, Podestats Haus;46.4486715684757;9.5580117422923
Avers, Pürt;46.4650339614219;9.52575324043508
Avers, Rufana;46.4496618681731;9.55396034036036
Avesnes;50.1268725984505;3.9331387247722
Aviernoz, Filliere Possy;45.9906000574248;6.21567701366207
Avignon Centre;43.9710681291526;4.69897047089638
Avignon TGV;43.9219390058523;4.78604417139821
Avord;47.0349091742223;2.6523836745662
Avoudrey;47.1297417532961;6.43455153266826
Avrée;46.8249062602642;3.87864691962993
Avricourt Café Saint-Nicolas;48.6463912733577;6.81170920475834
Avricourt Rue de Lorraine;48.6466049403821;6.81547314579932
Avry, Co Sarine Ouest;46.7862182928786;7.07752069736631
Avry-devant-Pont, La Cantine;46.6863818080244;7.09599904276322
Avry-devant-Pont, village;46.6856608065304;7.08675537848834
Avry-sur-Matran, bif.;46.787294701208;7.07571508364498
Avry-sur-Matran, centre com.;46.7863782177632;7.07882325452846
Avry-sur-Matran, CO;46.7862182928786;7.07751171421346
Avry-sur-Matran, Courtaney;46.7933160399243;7.07102587786122
Avry-sur-Matran, école;46.7871224773217;7.07097197894416
Avry-sur-Matran, Fontanettes;46.7845329017458;7.06858246028807
Avry-sur-Matran, La Sonnaz;46.7931069342427;7.06228527014552
Avry-sur-Matran, Les Agges;46.7881435108827;7.07446642539988
Avry-sur-Matran, Marie-Favre;46.7914094580534;7.07017247834119
Avry-sur-Matran, village;46.7884202937522;7.07184334476988
Avully, Bachères;46.1645699253636;5.99215820463634
Avully, école;46.1671829504463;6.00513886049367
Avully, Gennecy;46.1682592318285;5.99594909513585
Avully, Martinet;46.1586839428087;5.98645390258138
Avully, Printanière;46.1736465434661;6.00551615291305
Avully, Touvière;46.1751021468163;5.99806911920667
Avully, village;46.1695718933325;6.00110542486741
Avusy, Creux-du-Loup;46.1518389852424;5.99579638153753
Avusy, Eaumorte Hameau;46.1632758098432;6.0191346126222
Avusy, La Tuiliere;46.1491692210171;6.00645938396151
Avusy, Les Quoattes;46.1527786616512;5.99538315650677
Avusy, Moulin de la Grave;46.1503578732971;5.99376618899513
Avusy, Sur-le-Moulin;46.143679928312;6.01931427567905
Avusy, village;46.1518265390896;5.99349669440986
Axalp, Bellevue;46.7239160479123;8.0371100671492
Axalp, Sportbahnen;46.7187245353286;8.03748735956858
Axalp, Totzweg;46.7237189889403;8.04313776270648
Ay (D), Abzw. Bierbronnen;47.6732535771684;8.17907083151837
Ay (D), Hirschen;47.6738403147665;8.17489366544663
Ay (F);49.0487305705629;4.00159933258448
Ayer, anc. poste;46.1770988733505;7.60434667896438
Ayer, Blanche Pierre;46.1828522748638;7.59856152853384
Ayer, Cuimey;46.2051386880196;7.59109652852177
Ayer, Les Grands Praz;46.1704677201657;7.60952995815447
Ayer, Les Morasses;46.1669340962622;7.60939521086183
Ayer, Prarrayer;46.1800160786543;7.60086121566151
Ayer, Val d'Uccle;46.184512874468;7.5958216669169
Azenweiler;47.8024002010705;9.41022989488123
Azenweiler, Abzw. Wittenhofen;47.80159768751;9.4113438058337
Azerailles;48.4909764737977;6.69658111792956
Azmoos, Gatina;47.0839889662803;9.47665132699827
Azmoos, Post;47.0804533048764;9.47657047862269
Baar;47.1953642842458;8.52326931582952
Baar (Nendaz), La Mury;46.1977772119221;7.32303026455035
Baar (Nendaz), village;46.2054557564706;7.33221104675533
Baar Lindenpark;47.183136446847;8.51706195721539
Baar Neufeld;47.1884906694246;8.51778060944278
Baar, Altgasse;47.191762767611;8.5196041894698
Baar, Arbach;47.1760536352866;8.52962938804197
Baar, Bachtalerhöhe;47.2099204664456;8.51043239041766
Baar, Bahnhof;47.1954924693162;8.52391610283417
Baar, Bahnmatt;47.1967254717989;8.52379932184722
Baar, Blegistrasse;47.2145519734804;8.56727778160466
Baar, Brauerei;47.1962859890516;8.534758768315
Baar, Büelplatz;47.1954497409938;8.52866819068782
Baar, Chriesimatt;47.1937772053425;8.53364485736254
Baar, EW;47.195291035495;8.53163263112583
Baar, Früebergstrasse;47.1983857071066;8.52212845541852
Baar, Geissbüel;47.1886371855978;8.53934915941749
Baar, Grund;47.1927333698816;8.52993481523861
Baar, Hof Himmelrich;47.1908715071253;8.53688777553866
Baar, Kantonsspital;47.1945463341232;8.51934367803737
Baar, Kreuzplatz;47.1951994744144;8.52620680680899
Baar, Lättich;47.2008088249571;8.53800168649112
Baar, Lättichstrasse;47.1985932328675;8.53849575989746
Baar, Lindenhof;47.193581869274;8.52341304627499
Baar, Metro;47.1906334281611;8.51412446623591
Baar, Moosrank (Höllgrotten);47.1783495466672;8.54837722802415
Baar, Oberdorf;47.1967254717989;8.5305456696319
Baar, Oberneuhof;47.1886249759321;8.5157953326646
